STATE,DISTRICT,STATION,LATITUDE,LONGITUDE,STATION_TYPE,MAY (Level m),AUG (Level m),YEAR,geometry
HARYANA,SIRSA,Berwalakhurd,29.452777780178533,74.56805555961374,Manual,2.55,2.4,1996,POINT (74.56805555961374 29.45277778017853)
HARYANA,MEWAT,Pipaka-Shashola,28.22638888973083,77.02916667022727,Manual,,,1996,POINT (77.02916667022727 28.22638888973083)
HARYANA,FARIDABAD,Manjhawali-DW,28.369444440023198,77.47749999952136,Manual,,,1996,POINT (77.47749999952136 28.3694444400232)
HARYANA,PALWAL,Achheja,28.04583333001387,77.46666666994655,Manual,,,1996,POINT (77.46666666994655 28.04583333001387)
HARYANA,FATEHABAD,Khajuri Jatti-Pz,29.47555555999672,75.61111111023902,Manual,,,1996,POINT (75.61111111023902 29.47555555999672)
HARYANA,KURUKSHETRA,Kaulapur S,30.025000000280446,76.895833330141,Manual,,,1996,POINT (76.895833330141 30.02500000028045)
HARYANA,KURUKSHETRA,Khanpur Jattan M -Pz,30.12500000002048,76.86083333003714,Manual,,,1996,POINT (76.86083333003714 30.12500000002048)
HARYANA,BHIWANI,Runhat-DW,29.000555559904925,75.93888889046148,Manual,,,1996,POINT (75.93888889046148 29.00055555990492)
HARYANA,MEWAT,Bhadas-DW,27.94166666959188,77.0166666703182,Manual,,,1996,POINT (77.0166666703182 27.94166666959188)
HARYANA,MEWAT,Kheri1,27.97777777973659,77.01250000023035,Manual,,,1996,POINT (77.01250000023035 27.97777777973659)
HARYANA,GURGAON,Kherlilala,28.30000000036541,77.17083333020308,Manual,6.87,5.76,1996,POINT (77.17083333020308 28.30000000036541)
HARYANA,KARNAL,Nisang-Pz,29.694444439687988,76.7541666697699,Manual,,,1996,POINT (76.7541666697699 29.69444443968799)
HARYANA,MEWAT,Rangla Dhani-Pz,28.227777779852747,76.87083332996491,Manual,,,1996,POINT (76.87083332996491 28.22777777985275)
HARYANA,GURGAON,Gudhana-Pz,28.35277778023273,76.68888888958139,Manual,,,1996,POINT (76.68888888958139 28.35277778023273)
HARYANA,KAITHAL,Nangla-Pz-S,29.617222219718084,75.8913888900657,Manual,,,1996,POINT (75.8913888900657 29.61722221971808)
HARYANA,BHIWANI,Baundkalan,28.780555560439602,76.36666667012837,Manual,3.54,3.41,1996,POINT (76.36666667012837 28.7805555604396)
HARYANA,KAITHAL,Nangla-Pz-D,29.617222219718084,75.8913888900657,Manual,,,1996,POINT (75.8913888900657 29.61722221971808)
HARYANA,KURUKSHETRA,Malikpur S,30.045833330012478,76.63333332989001,Manual,17.42,,1996,POINT (76.63333332989001 30.04583333001248)
HARYANA,KURUKSHETRA,Busthala-PZ,30.076111109712766,76.72166666972258,Manual,,,1996,POINT (76.72166666972258 30.07611110971277)
HARYANA,BHIWANI,Gurera,28.919444439912038,75.51583333033365,Manual,17.62,17.34,1996,POINT (75.51583333033365 28.91944443991204)
HARYANA,KAITHAL,Samain,29.61944444005702,75.9375000000977,Manual,2.52,2.69,1996,POINT (75.9375000000977 29.61944444005702)
HARYANA,PANIPAT,Patti Kalyana M,29.209722219814747,77.02777777967859,Manual,11.85,12.9,1996,POINT (77.02777777967859 29.20972221981475)
HARYANA,KURUKSHETRA,Bodhni (m),30.054166669606317,76.55833333035349,Manual,,,1996,POINT (76.55833333035349 30.05416666960632)
HARYANA,KAITHAL,Kaithal S,29.799999999963504,76.40000000028797,Manual,7.42,6.22,1996,POINT (76.40000000028797 29.7999999999635)
HARYANA,JHAJJAR,Kutubgarh Pz,28.811111110256718,76.94999999960345,Manual,7.31,6.35,1996,POINT (76.94999999960345 28.81111111025672)
HARYANA,MEWAT,Firozepur Jhirka,27.791666669610766,76.94999999951958,Manual,,,1996,POINT (76.94999999951958 27.79166666961077)
HARYANA,YAMUNANAGAR,Shahabpura-Pz,30.126944440210966,77.11500000046955,Manual,,,1996,POINT (77.11500000046955 30.12694444021097)
HARYANA,KURUKSHETRA,Barshami-PZ,30.011111110270964,77.10694444044995,Manual,,,1996,POINT (77.10694444044995 30.01111111027096)
HARYANA,REWARI,Karoli-DW,28.385555559909807,76.33888889050715,Manual,,,1996,POINT (76.33888889050715 28.38555555990981)
HARYANA,KARNAL,Paccakhera,29.602777780368857,76.78888889041872,Manual,,,1996,POINT (76.78888889041872 29.60277778036886)
HARYANA,FATEHABAD,Bhodiakhera,29.487500000062237,75.42083333016922,Manual,10.44,10.34,1996,POINT (75.42083333016922 29.48750000006224)
HARYANA,AMBALA,Binjal Pur-DW,30.306666669780753,77.13333332992333,Manual,,,1996,POINT (77.13333332992333 30.30666666978075)
HARYANA,PALWAL,Rasulpur2,28.091666670070406,77.4041666698859,Manual,,,1996,POINT (77.4041666698859 28.09166667007041)
HARYANA,JIND,Ghaso,29.522222220182748,76.15277777974313,Manual,6.97,6.94,1996,POINT (76.15277777974313 29.52222222018275)
HARYANA,REWARI,Sangwari,28.162499999782646,76.66805556048662,Manual,14.92,,1996,POINT (76.66805556048662 28.16249999978265)
HARYANA,KURUKSHETRA,Yara-PZ,30.141666670275264,76.95138888969367,Manual,,,1996,POINT (76.95138888969367 30.14166667027526)
HARYANA,MEWAT,Khori Kalan,28.21527778030871,76.88277777999721,Manual,,,1996,POINT (76.88277777999721 28.21527778030871)
HARYANA,YAMUNANAGAR,Shahabpura-Ppz,30.130833330174088,77.11277778028672,Manual,,,1996,POINT (77.11277778028672 30.13083333017409)
HARYANA,HISAR,Barwala1,29.370833330109587,75.9208333304703,Manual,11.26,11.16,1996,POINT (75.9208333304703 29.37083333010959)
HARYANA,KARNAL,KheriNaru-Pz-M,29.648611109829158,76.91361110983453,Manual,,,1996,POINT (76.91361110983453 29.64861110982916)
HARYANA,MAHENDRAGARH,Pachnota-DW,27.89333333020617,76.00499999961492,Manual,,,1996,POINT (76.00499999961492 27.89333333020617)
HARYANA,ROHTAK,Kalanaur2,28.8222222196922,76.39722222012341,Manual,3.84,2.23,1996,POINT (76.39722222012341 28.8222222196922)
HARYANA,JHAJJAR,Hasanpur,28.541666670166503,76.6125000000866,Manual,,5.3,1996,POINT (76.6125000000866 28.5416666701665)
HARYANA,SIRSA,Sainpal-Pz,29.611111109621753,74.68333333016602,Manual,,,1996,POINT (74.68333333016602 29.61111110962175)
HARYANA,BHIWANI,Miran,28.848611110090793,75.74166667016848,Manual,6.4,5.98,1996,POINT (75.74166667016848 28.84861111009079)
HARYANA,SIRSA,Kalanwali Mandi-Pz,29.83888889034492,74.98888888949179,Manual,,,1996,POINT (74.98888888949179 29.83888889034492)
HARYANA,SIRSA,Nadelkhera,29.53333332998065,75.28333333038407,Manual,,,1996,POINT (75.28333333038407 29.53333332998065)
HARYANA,AMBALA,Bichali Dhamouli-Pz,30.38333332985416,77.01666666983273,Manual,,,1996,POINT (77.01666666983273 30.38333332985416)
HARYANA,KURUKSHETRA,Ishaq,30.016666670011023,76.49166667024456,Manual,,,1996,POINT (76.49166667024456 30.01666667001102)
HARYANA,KAITHAL,Ratta Khera-Pz,29.729166669868807,75.8527777804983,Manual,,,1996,POINT (75.8527777804983 29.72916666986881)
HARYANA,SONIPAT,Nahara,28.875000000353204,77.00833333004536,Manual,,,1996,POINT (77.00833333004536 28.8750000003532)
HARYANA,PALWAL,Baghaula,28.220833329621914,77.30833333019515,Manual,4.39,3.11,1996,POINT (77.30833333019515 28.22083332962191)
HARYANA,KURUKSHETRA,Gumthala Garhu-PZ,29.936388890159375,76.5502777794941,Manual,,,1996,POINT (76.5502777794941 29.93638889015937)
HARYANA,KARNAL,Hathira-PZ,29.886111109741808,76.75249999988431,Manual,,,1996,POINT (76.75249999988431 29.88611110974181)
HARYANA,JIND,Dalamwala-DW,29.38722221980899,76.38305556029192,Manual,,,1996,POINT (76.38305556029192 29.38722221980899)
HARYANA,BHIWANI,Kakroli Hukmi1,28.570833330315534,75.9597222203962,Manual,,,1996,POINT (75.9597222203962 28.57083333031553)
HARYANA,JIND,Alewa Pz,29.480555559867835,76.44999999974135,Manual,,,1996,POINT (76.44999999974135 29.48055555986783)
HARYANA,KAITHAL,Pundri(d),29.777777779955482,76.57499999984663,Manual,9.02,9.96,1996,POINT (76.57499999984663 29.77777777995548)
HARYANA,SONIPAT,Pinana,29.06111111008312,76.83333332956208,Manual,4.55,3.36,1996,POINT (76.83333332956208 29.06111111008312)
HARYANA,HISAR,Agroha-Pz,29.324999999920372,75.62277777955012,Manual,,,1996,POINT (75.62277777955012 29.32499999992037)
HARYANA,SIRSA,Kairanwali-DW,29.399444439928214,75.20833332993715,Manual,,,1996,POINT (75.20833332993715 29.39944443992821)
HARYANA,YAMUNANAGAR,Chachrauli,30.24999999990973,77.33333333046706,Manual,,,1996,POINT (77.33333333046706 30.24999999990973)
HARYANA,HISAR,Narnaud S,29.116666669591226,75.5666666697067,Manual,,,1996,POINT (75.56666666970671 29.11666666959123)
HARYANA,JIND,Mandi Kalan-DW,29.57333333040297,76.31388889019517,Manual,,,1996,POINT (76.31388889019517 29.57333333040297)
HARYANA,SIRSA,Rupana,29.408333329912768,75.14444444015956,Manual,2.6,2.3,1996,POINT (75.14444444015956 29.40833332991277)
HARYANA,FARIDABAD,Ballabgarh,28.345833329906114,77.32083332988063,Manual,,,1996,POINT (77.32083332988063 28.34583332990611)
HARYANA,PANIPAT,K.prahladpur(s),29.293055560339127,76.979166670409,Manual,,,1996,POINT (76.979166670409 29.29305556033913)
HARYANA,JIND,Dhigana-DW,29.22361111020493,76.4433333298756,Manual,,,1996,POINT (76.4433333298756 29.22361111020493)
HARYANA,KARNAL,Gondhar,29.64833332974979,76.75472222008446,Manual,,,1996,POINT (76.75472222008446 29.64833332974979)
HARYANA,PANIPAT,Rakshera,29.188333329892107,77.10694444028421,Manual,,,1996,POINT (77.10694444028421 29.18833332989211)
HARYANA,HISAR,Barwala-Pz,29.38666666974781,75.91666666951329,Manual,,,1996,POINT (75.91666666951329 29.38666666974781)
HARYANA,REWARI,Dahina,28.29583332983325,76.38333333018231,Manual,,,1996,POINT (76.38333333018231 28.29583332983325)
HARYANA,JIND,Danaudakalan,29.522222219803467,76.0013888900119,Manual,2.23,2.91,1996,POINT (76.0013888900119 29.52222221980347)
HARYANA,GURGAON,Siwari-Pz,28.469444439805542,76.72361111005236,Manual,,,1996,POINT (76.72361111005236 28.46944443980554)
HARYANA,MEWAT,Malab,28.04166667002089,77.01111110984779,Manual,,1.21,1996,POINT (77.01111110984779 28.04166667002089)
HARYANA,PALWAL,Badraun,28.194444439760474,77.37777777993804,Manual,,,1996,POINT (77.37777777993804 28.19444443976047)
HARYANA,KARNAL,Badson- PZ,29.92055556044869,76.96722221975084,Manual,,,1996,POINT (76.96722221975084 29.92055556044869)
HARYANA,KARNAL,Mound M,29.5180555597337,76.54722221959085,Manual,10.21,,1996,POINT (76.54722221959085 29.5180555597337)
HARYANA,HISAR,Nahla,29.437500000000487,75.74166667025956,Manual,7.11,6.93,1996,POINT (75.74166667025956 29.43750000000049)
HARYANA,REWARI,Bawal1,28.07083333017813,76.57916667006249,Manual,,,1996,POINT (76.57916667006249 28.07083333017813)
HARYANA,PANIPAT,Lohari(shallow),29.358333330261694,76.83888889033481,Manual,,,1996,POINT (76.83888889033481 29.35833333026169)
HARYANA,JIND,Kakrod-DW,29.4558333296711,76.08722222027427,Manual,,,1996,POINT (76.08722222027427 29.4558333296711)
HARYANA,PANIPAT,Shimla Maulan S,29.456111109968447,76.98333332984947,Manual,,,1996,POINT (76.98333332984947 29.45611110996845)
HARYANA,KARNAL,KheriNaru-Pz-S,29.648611109829158,76.91361110983453,Manual,,,1996,POINT (76.91361110983453 29.64861110982916)
HARYANA,PALWAL,Pirgarhi- Pz,28.04444444011317,77.4722222204876,Manual,,,1996,POINT (77.47222222048759 28.04444444011317)
HARYANA,HISAR,Mangali-Pz,29.04166667040787,75.72222221987163,Manual,,,1996,POINT (75.72222221987163 29.04166667040787)
HARYANA,YAMUNANAGAR,Bahadurpur,30.3000000003784,77.52083332974019,Manual,18.02,13.46,1996,POINT (77.52083332974019 30.3000000003784)
HARYANA,KARNAL,Sangoi-Pz,29.750833330120592,77.00055556011282,Manual,,,1996,POINT (77.00055556011282 29.75083333012059)
HARYANA,SIRSA,Taruwana,29.825000000382207,75.0083333304378,Manual,8.37,8.07,1996,POINT (75.00833333043779 29.82500000038221)
HARYANA,FATEHABAD,Ratia,29.687499999964114,75.57777777979891,Manual,9.29,8.99,1996,POINT (75.57777777979891 29.68749999996411)
HARYANA,KURUKSHETRA,Morthala-PZ,30.057500000182966,76.91472221974622,Manual,,,1996,POINT (76.91472221974622 30.05750000018297)
HARYANA,PALWAL,Lankhara(shallow),28.034722220453702,77.1874999999814,Manual,,,1996,POINT (77.1874999999814 28.0347222204537)
HARYANA,MAHENDRAGARH,Datal-DW,27.86333332963029,76.11666666979917,Manual,,,1996,POINT (76.11666666979917 27.86333332963029)
HARYANA,JIND,Uchana Pz,29.469444440294062,76.18611111044302,Manual,,,1996,POINT (76.18611111044302 29.46944444029406)
HARYANA,YAMUNANAGAR,Ranjitpur,30.162500000031148,77.33333332987633,Manual,,4.79,1996,POINT (77.33333332987633 30.16250000003115)
HARYANA,HISAR,Behbalpur-Pz,29.283333329807967,75.78944443958305,Manual,,,1996,POINT (75.78944443958305 29.28333332980797)
HARYANA,HISAR,Kherijalab,29.32500000017011,76.08750000015345,Manual,4.4,4.1,1996,POINT (76.08750000015345 29.32500000017011)
HARYANA,FARIDABAD,Sanped-DW,28.28611111039961,77.34166666984018,Manual,,,1996,POINT (77.34166666984018 28.28611111039961)
HARYANA,SIRSA,Desu Malkana-DW,29.85611110966247,74.96666666962862,Manual,,,1996,POINT (74.96666666962862 29.85611110966247)
HARYANA,KAITHAL,Gulha 1(m),30.04027778021509,76.30000000030658,Manual,,,1996,POINT (76.30000000030658 30.04027778021509)
HARYANA,BHIWANI,Singhani-pz,28.533333329875283,75.80000000022638,Manual,,,1996,POINT (75.80000000022638 28.53333332987528)
HARYANA,FATEHABAD,Nagpur- Pz,29.65000000009427,75.42499999958923,Manual,,,1996,POINT (75.42499999958923 29.65000000009427)
HARYANA,SIRSA,Sureramithi,29.433333329972253,74.68750000019025,Manual,,,1996,POINT (74.68750000019025 29.43333332997225)
HARYANA,PANIPAT,Hathwala-Pz,29.226388889837903,77.11805556035705,Manual,,,1996,POINT (77.11805556035705 29.2263888898379)
HARYANA,JIND,Kathana,29.533333329912658,76.38749999964034,Manual,5.03,1.96,1996,POINT (76.38749999964034 29.53333332991266)
HARYANA,PANIPAT,Lohari (s),29.358333330261694,76.83888889033481,Manual,,,1996,POINT (76.83888889033481 29.35833333026169)
HARYANA,KARNAL,Balhera (shallow),29.474999999584053,77.0874999999617,Manual,,,1996,POINT (77.08749999996169 29.47499999958405)
HARYANA,MAHENDRAGARH,Khodana,28.408333329706842,76.12083333034576,Manual,18.81,20.39,1996,POINT (76.12083333034576 28.40833332970684)
HARYANA,HISAR,Datta-DW,29.266666670347657,75.99722222010409,Manual,,,1996,POINT (75.99722222010409 29.26666667034766)
HARYANA,JHAJJAR,Bahadurgarh,28.691666670181217,76.93333333028963,Manual,8.62,7.65,1996,POINT (76.93333333028963 28.69166667018122)
HARYANA,FATEHABAD,Dhaulu,29.591666670116123,75.67916666994185,Manual,11.44,11.34,1996,POINT (75.67916666994185 29.59166667011612)
HARYANA,KARNAL,Chorpur(shallow),29.78333333020587,77.11666667001569,Manual,,,1996,POINT (77.11666667001569 29.78333333020587)
HARYANA,PANIPAT,Sewah(shallow),29.341666670299322,76.97916666976707,Manual,,,1996,POINT (76.97916666976707 29.34166667029932)
HARYANA,FATEHABAD,Jagiwala-DW,29.266666670449816,75.23472222002734,Manual,,,1996,POINT (75.23472222002734 29.26666667044982)
HARYANA,SIRSA,Sukhchain-DW,29.777777780398523,75.03611110988264,Manual,,,1996,POINT (75.03611110988264 29.77777778039852)
HARYANA,AMBALA,Kapoori At Saphera-PZ,30.34055555965784,76.92833333039471,Manual,,,1996,POINT (76.92833333039471 30.34055555965784)
HARYANA,SONIPAT,Juan-DW,29.062500000072326,76.90055555955526,Manual,,,1996,POINT (76.90055555955526 29.06250000007233)
HARYANA,ROHTAK,Atail-DW,28.841666670390183,76.75194443983612,Manual,,,1996,POINT (76.75194443983612 28.84166667039018)
HARYANA,KARNAL,Saunkra (deep),29.78472221975934,76.87999999960387,Manual,,,1996,POINT (76.87999999960387 29.78472221975934)
HARYANA,KARNAL,Bala,29.502777780263337,76.72472222026705,Manual,,,1996,POINT (76.72472222026705 29.50277778026334)
HARYANA,MAHENDRAGARH,Khatodra-Pz,28.274999999813662,76.07083332963407,Manual,,,1996,POINT (76.07083332963407 28.27499999981366)
HARYANA,PANCHKULA,Ramgarh-DW,30.649999999558148,76.88333333052596,Manual,,,1996,POINT (76.88333333052596 30.64999999955815)
HARYANA,SONIPAT,BOREWELL IN FRONT OF CETP HSIIDC RAI SONEPAT,28.92925600040836,77.08373499977463,MANUAL,,,1996,POINT (77.08373499977463 28.92925600040836)
HARYANA,BHIWANI,Tosham,28.874999999573106,75.91666666992386,Manual,6.71,5.41,1996,POINT (75.91666666992386 28.87499999957311)
HARYANA,SONIPAT,Barauli-Pz,29.01944444018436,77.02944444001021,Manual,,,1996,POINT (77.02944444001021 29.01944444018436)
HARYANA,PANIPAT,Untilya,29.391666670042905,76.84999999989627,Manual,4.07,1.49,1996,POINT (76.84999999989627 29.39166667004291)
HARYANA,MAHENDRAGARH,Dhancholi-DW,27.99333333034193,75.97138888980308,Manual,,,1996,POINT (75.97138888980308 27.99333333034193)
HARYANA,SONIPAT,Garhwal,29.183333329586798,76.53888889030802,Manual,3.74,2.23,1996,POINT (76.53888889030802 29.1833333295868)
HARYANA,SIRSA,Dhudianwali3(d),29.599999999548544,74.71666666954278,Manual,,,1996,POINT (74.71666666954278 29.59999999954854)
HARYANA,SONIPAT,Bega Pz,29.154166669668573,77.11250000002585,Manual,,,1996,POINT (77.11250000002585 29.15416666966857)
HARYANA,KURUKSHETRA,Bodhni (s),30.054166669606317,76.55833333035349,Manual,,,1996,POINT (76.55833333035349 30.05416666960632)
HARYANA,YAMUNANAGAR,Betha,30.362499999748845,77.34027777955225,Manual,,,1996,POINT (77.34027777955225 30.36249999974885)
HARYANA,KAITHAL,Kathana-Pz,29.54583332970991,76.39305556022384,Manual,,,1996,POINT (76.39305556022384 29.54583332970991)
HARYANA,SONIPAT,Kharkhauda1,28.877777780004692,76.91250000001337,Manual,5.04,4.03,1996,POINT (76.91250000001337 28.87777778000469)
HARYANA,GURGAON,Budehra-DW,28.46111111032652,76.98472221990698,Manual,,,1996,POINT (76.98472221990698 28.46111111032652)
HARYANA,JHAJJAR,Gabhana,28.57083333003868,76.84166667043515,Manual,,,1996,POINT (76.84166667043515 28.57083333003868)
HARYANA,KARNAL,Indri,29.88055556028119,77.06250000007896,Manual,,,1996,POINT (77.06250000007896 29.88055556028119)
HARYANA,PANIPAT,Tajpur S,29.302222219735164,77.07499999964034,Manual,,,1996,POINT (77.07499999964034 29.30222221973516)
HARYANA,JIND,Lawan,29.675000000362118,76.04583333003363,Manual,3.2,1.78,1996,POINT (76.04583333003363 29.67500000036212)
HARYANA,KURUKSHETRA,Pehowa 3 (s),29.983333330392465,76.58055555963423,Manual,,,1996,POINT (76.58055555963423 29.98333333039247)
HARYANA,KARNAL,Sitamarhi,29.783333329924154,76.76666667003657,Manual,6.54,6.24,1996,POINT (76.76666667003657 29.78333332992415)
HARYANA,KURUKSHETRA,Thana (m),29.91999999988473,76.5013888901509,Manual,,,1996,POINT (76.50138889015091 29.91999999988473)
HARYANA,JIND,Gurusar-DW,29.757222220356315,76.11027777960805,Manual,,,1996,POINT (76.11027777960805 29.75722222035632)
HARYANA,PALWAL,Barauli1,28.077777780146803,77.43888888962269,Manual,,,1996,POINT (77.43888888962269 28.0777777801468)
HARYANA,FARIDABAD,GEPIL VILLAGE PALI MOHABATABAD CRUSHER ZONE FARIDABAD,28.399433999831267,77.22237799978576,MANUAL,,,1996,POINT (77.22237799978576 28.39943399983127)
HARYANA,ROHTAK,Giji-DW,28.818611110113554,76.77499999988173,Manual,,,1996,POINT (76.77499999988173 28.81861111011355)
HARYANA,MEWAT,Pipaka,28.22638888973083,77.02916667022727,Manual,,,1996,POINT (77.02916667022727 28.22638888973083)
HARYANA,REWARI,Khaliawas,28.208333330443693,76.74166667046613,Manual,,,1996,POINT (76.74166667046613 28.20833333044369)
HARYANA,KARNAL,Ghiar-Pz,29.77805556023965,77.09694444024238,Manual,,,1996,POINT (77.09694444024238 29.77805556023965)
HARYANA,KURUKSHETRA,Garhi Roran-PZ,29.963611109752716,76.73027777995064,Manual,,,1996,POINT (76.73027777995064 29.96361110975272)
HARYANA,SIRSA,Sri Jiwan Nagar,29.537500000453008,74.74166666985047,Manual,,,1996,POINT (74.74166666985047 29.53750000045301)
HARYANA,KARNAL,Kairiwali M,29.62222222013989,77.04166666966843,Manual,,,1996,POINT (77.04166666966843 29.62222222013989)
HARYANA,KAITHAL,Balbehra,30.025000000423645,76.38333332949716,Manual,,,1996,POINT (76.38333332949716 30.02500000042365)
HARYANA,JIND,Jind-Pz,29.321388889665478,76.30694444015091,Manual,,,1996,POINT (76.30694444015091 29.32138888966548)
HARYANA,KARNAL,Darar,29.85416666957923,77.10000000052041,Manual,,,1996,POINT (77.10000000052041 29.85416666957923)
HARYANA,YAMUNANAGAR,Damla-Pz,30.08333332987236,77.21666667046964,Manual,,,1996,POINT (77.21666667046964 30.08333332987236)
HARYANA,REWARI,Gurkawas-DW,28.252777779850394,76.63111111051249,Manual,,,1996,POINT (76.63111111051249 28.25277777985039)
HARYANA,KAITHAL,Manaspatti-Pz,29.829166670369712,76.32916667038495,Manual,,,1996,POINT (76.32916667038495 29.82916667036971)
HARYANA,JIND,Pipalthe,29.758333329685378,76.10000000032461,Manual,,,1996,POINT (76.10000000032461 29.75833332968538)
HARYANA,KARNAL,Sitaundi,29.56944443959949,76.99166666985295,Manual,,,1996,POINT (76.99166666985295 29.56944443959949)
HARYANA,HISAR,Muklan,29.06944444002997,75.65833332986509,Manual,8.3,8.05,1996,POINT (75.65833332986509 29.06944444002997)
HARYANA,KARNAL,Dupedi-DW,29.508333329658342,76.65888888988398,Manual,,,1996,POINT (76.65888888988398 29.50833332965834)
HARYANA,KARNAL,Jalmana,29.59166667013632,76.7083333300195,Manual,8.99,10.99,1996,POINT (76.7083333300195 29.59166667013632)
HARYANA,AMBALA,Bari Bassi-DW,30.462777780431882,77.07222221976086,Manual,,,1996,POINT (77.07222221976086 30.46277778043188)
HARYANA,KARNAL,Jaisingh Pura-Dw,29.541666670410706,76.6311111095631,Manual,,,1996,POINT (76.63111110956309 29.54166667041071)
HARYANA,KAITHAL,Barsana-Pz,29.715277780173988,76.59722222028911,Manual,,,1996,POINT (76.59722222028911 29.71527778017399)
HARYANA,REWARI,Kahari,28.299999999761585,76.46249999953936,Manual,,12.85,1996,POINT (76.46249999953936 28.29999999976159)
HARYANA,MEWAT,Chhapar,28.137500000382968,77.09861111036905,Manual,,,1996,POINT (77.09861111036905 28.13750000038297)
HARYANA,KARNAL,Kheri Sharfali,29.558333329938325,76.54166666948443,Manual,,,1996,POINT (76.54166666948443 29.55833332993832)
HARYANA,BHIWANI,Singhani,28.52777777986548,75.76111111007306,Manual,,,1996,POINT (75.76111111007306 28.52777777986548)
HARYANA,JIND,Pillukhera-Pz,29.357222219757908,76.49333333050451,Manual,,,1996,POINT (76.49333333050451 29.35722221975791)
HARYANA,FARIDABAD,Faridabad,28.42500000022481,77.30416666949634,Manual,,,1996,POINT (77.30416666949634 28.42500000022481)
HARYANA,PANIPAT,Lohari (m),29.358333330261694,76.83888889033481,Manual,,,1996,POINT (76.83888889033481 29.35833333026169)
HARYANA,AMBALA,Nanhera-DW,30.31111111041614,76.8461111097082,Manual,,,1996,POINT (76.8461111097082 30.31111111041614)
HARYANA,HISAR,Durjanpur,29.238888889726372,75.64583333028676,Manual,8.41,8.11,1996,POINT (75.64583333028676 29.23888888972637)
HARYANA,JIND,Gangoli-DW,29.299999999764186,76.52805556030046,Manual,,,1996,POINT (76.52805556030046 29.29999999976419)
HARYANA,SONIPAT,Baroda Mor-DW,29.14666666975872,76.62861111041738,Manual,,,1996,POINT (76.62861111041738 29.14666666975872)
HARYANA,YAMUNANAGAR,Chamrori-Pz,30.05000000016498,77.13333333005446,Manual,,,1996,POINT (77.13333333005446 30.05000000016498)
HARYANA,KURUKSHETRA,Brahan,29.991666670443944,77.04166666954471,Manual,,,1996,POINT (77.04166666954471 29.99166667044394)
HARYANA,MEWAT,Punhana-Pz,27.86111111014968,77.20555556015312,Manual,,,1996,POINT (77.20555556015312 27.86111111014968)
HARYANA,SONIPAT,Gorar-DW,28.947777780242923,76.81250000019539,Manual,,,1996,POINT (76.81250000019539 28.94777778024292)
HARYANA,SONIPAT,Mahara,29.098611109976677,76.68472221966293,Manual,4.37,3.53,1996,POINT (76.68472221966293 29.09861110997668)
HARYANA,GURGAON,Farrukh Nagar-Pz,28.44722222007407,76.824999999725,Manual,,,1996,POINT (76.82499999972499 28.44722222007407)
HARYANA,REWARI,Aulant,28.25833333044909,76.46666667017277,Manual,,,1996,POINT (76.46666667017277 28.25833333044909)
HARYANA,SIRSA,Dabwali,29.954166670338527,74.73750000034462,Manual,9.51,9.18,1996,POINT (74.73750000034462 29.95416667033853)
HARYANA,GURGAON,Sidrawali-Pz,28.266666670389505,76.83472222009206,Manual,,,1996,POINT (76.83472222009206 28.2666666703895)
HARYANA,KAITHAL,TUBEWELL NO. 1 NEAR UPSTREAM GHAGGAR RIVER VILLAGE CHIALI,30.128579999958248,76.43317600047712,MANUAL,,,1996,POINT (76.43317600047712 30.12857999995825)
HARYANA,SIRSA,Rania-DW,29.527777780448524,74.8499999999607,Manual,,,1996,POINT (74.8499999999607 29.52777778044852)
HARYANA,KAITHAL,Pharal,29.834722220088143,76.58472221976366,Manual,13.42,13.29,1996,POINT (76.58472221976366 29.83472222008814)
HARYANA,HISAR,Badchappar,29.11666667028197,76.30555556012727,Manual,1.44,1.43,1996,POINT (76.30555556012727 29.11666667028197)
HARYANA,GURGAON,Meoka-Pz,28.408888889538268,76.91916666978375,Manual,,,1996,POINT (76.91916666978375 28.40888888953827)
HARYANA,SONIPAT,Pipli-DW,28.864444439740453,76.94305556016046,Manual,,,1996,POINT (76.94305556016046 28.86444443974045)
HARYANA,GURGAON,Nurgarh-Pz,28.35833332977256,76.68055556001502,Manual,,,1996,POINT (76.68055556001502 28.35833332977256)
HARYANA,PANIPAT,Bilaspur2,29.241666669637407,77.12499999955766,Manual,,,1996,POINT (77.12499999955766 29.24166666963741)
HARYANA,KURUKSHETRA,Bapda-PZ,29.97277778003132,77.05722222029779,Manual,,,1996,POINT (77.05722222029779 29.97277778003132)
HARYANA,SONIPAT,Murthal,29.037499999629816,77.08749999983212,Manual,,,1996,POINT (77.08749999983212 29.03749999962982)
HARYANA,HISAR,Dhand-DW,29.319999999916767,76.01583332982077,Manual,,,1996,POINT (76.01583332982077 29.31999999991677)
HARYANA,FATEHABAD,Khajoori Jattan Ew,29.472777780104018,75.62750000005511,Manual,,,1996,POINT (75.62750000005511 29.47277778010402)
HARYANA,AMBALA,Shahzadpur-Pz,30.43333333013789,77.01666667043558,Manual,,,1996,POINT (77.01666667043558 30.43333333013789)
HARYANA,KAITHAL,Guhna pz,29.766666670028886,76.25999999956238,Manual,,,1996,POINT (76.25999999956238 29.76666667002889)
HARYANA,KURUKSHETRA,Berthala(shallow),30.129166669615692,76.9833333301192,Manual,,,1996,POINT (76.98333333011919 30.12916666961569)
HARYANA,PANIPAT,Israna(m),29.277777779943943,76.85277777989874,Manual,,,1996,POINT (76.85277777989874 29.27777777994394)
HARYANA,KAITHAL,Guhla (deep),30.04027778021509,76.30000000030658,Manual,,,1996,POINT (76.30000000030658 30.04027778021509)
HARYANA,HISAR,Agroha,29.308333330263697,75.64999999963914,Manual,18.4,18.23,1996,POINT (75.64999999963914 29.3083333302637)
HARYANA,KARNAL,Amin S,29.872222219980074,76.84444444027581,Manual,,,1996,POINT (76.84444444027581 29.87222221998007)
HARYANA,ROHTAK,Nandal-DW,29.01583332975205,76.48472222020173,Manual,,,1996,POINT (76.48472222020173 29.01583332975205)
HARYANA,KURUKSHETRA,Batheri-PZ,29.939166670016576,76.59222222034927,Manual,,,1996,POINT (76.59222222034927 29.93916667001658)
HARYANA,SONIPAT,Nizaimpur,29.22916667034155,76.50555556014024,Manual,2.39,1.28,1996,POINT (76.50555556014024 29.22916667034155)
HARYANA,BHIWANI,Bhiwanihera,28.936111110289744,76.04166666966816,Manual,,,1996,POINT (76.04166666966816 28.93611111028974)
HARYANA,YAMUNANAGAR,Shadipur,30.099999999853907,77.27916666992719,Manual,,2.31,1996,POINT (77.27916666992719 30.09999999985391)
HARYANA,KARNAL,Kohand,29.508333330448398,76.98333332992954,Manual,,,1996,POINT (76.98333332992954 29.5083333304484)
HARYANA,PALWAL,Mandkola,28.149166670405172,77.18527777967536,Manual,,,1996,POINT (77.18527777967536 28.14916667040517)
HARYANA,AMBALA,Budhha Khera-DW,30.34777778043109,77.08388888953564,Manual,,,1996,POINT (77.08388888953564 30.34777778043109)
HARYANA,SIRSA,Mastian,29.88611110961185,74.71999999961194,Manual,17.25,17.0,1996,POINT (74.71999999961194 29.88611110961185)
HARYANA,JIND,Pega-DW,29.5088888903316,76.40694444013927,Manual,,,1996,POINT (76.40694444013927 29.5088888903316)
HARYANA,BHIWANI,Bohal,28.961111110381864,75.92138889013259,Manual,14.78,14.43,1996,POINT (75.92138889013259 28.96111111038186)
HARYANA,YAMUNANAGAR,Dhaurang S,30.066666669666557,77.1916666695887,Manual,,,1996,POINT (77.1916666695887 30.06666666966656)
HARYANA,KURUKSHETRA,Lohar Majra-PZ,29.952777779741602,76.72499999989437,Manual,,,1996,POINT (76.72499999989437 29.9527777797416)
HARYANA,HISAR,Rajthal,29.258333330198177,76.18749999969306,Manual,6.37,6.09,1996,POINT (76.18749999969306 29.25833333019818)
HARYANA,SIRSA,Ding,29.4624999995393,75.26388888975657,Manual,12.36,12.06,1996,POINT (75.26388888975657 29.4624999995393)
HARYANA,KARNAL,Kutail S,29.586111109583143,77.02222221948945,Manual,,,1996,POINT (77.02222221948945 29.58611110958314)
HARYANA,AMBALA,Dhanaura,30.295833329891416,77.11666666985141,Manual,4.21,,1996,POINT (77.11666666985141 30.29583332989142)
HARYANA,REWARI,Bawal2,28.07083333017813,76.57916667006249,Manual,,,1996,POINT (76.57916667006249 28.07083333017813)
HARYANA,PALWAL,Pelak-Pz,28.15555556025669,77.42638888964944,Manual,,,1996,POINT (77.42638888964944 28.15555556025669)
HARYANA,JIND,Alewa,29.47083333024744,76.45416667002877,Manual,12.2,,1996,POINT (76.45416667002877 29.47083333024744)
HARYANA,PALWAL,Nangal Jat-DW,27.877777779580068,77.28333332968491,Manual,,,1996,POINT (77.28333332968491 27.87777777958007)
HARYANA,PALWAL,TUBEWELL AT GARHI HODAL  PALWAL,27.882959000182236,77.36512700003742,MANUAL,,,1996,POINT (77.36512700003742 27.88295900018224)
HARYANA,SIRSA,Tejakhera,29.844444440436497,74.55555555988609,Manual,14.1,13.36,1996,POINT (74.55555555988609 29.8444444404365)
HARYANA,SIRSA,Sahuwala,29.66666666979023,74.9499999999605,Manual,3.17,2.95,1996,POINT (74.9499999999605 29.66666666979023)
HARYANA,PANCHKULA,Ram Nagar-DW,30.849999999890233,76.8666666703174,Manual,,,1996,POINT (76.8666666703174 30.84999999989023)
HARYANA,JHAJJAR,Kulasi,28.77222222028634,76.91249999954402,Manual,1.05,1.51,1996,POINT (76.91249999954402 28.77222222028634)
HARYANA,SIRSA,Nathanpur,29.63194444034862,74.63333333026141,Manual,14.14,13.74,1996,POINT (74.63333333026141 29.63194444034862)
HARYANA,AMBALA,Uplana D,30.283333329965643,77.033333330048,Manual,,,1996,POINT (77.03333333004799 30.28333332996564)
HARYANA,KAITHAL,Pundri(s),29.777777779955482,76.57499999984663,Manual,,,1996,POINT (76.57499999984663 29.77777777995548)
HARYANA,KAITHAL,Mataur,29.60833332990254,76.25833333022919,Manual,2.89,3.14,1996,POINT (76.25833333022919 29.60833332990254)
HARYANA,KURUKSHETRA,Ladwa 3(s),29.995833330032788,77.07916666956082,Manual,,,1996,POINT (77.07916666956082 29.99583333003279)
HARYANA,ROHTAK,Kansala,28.891666669777628,76.77500000036322,Manual,4.18,2.32,1996,POINT (76.77500000036322 28.89166666977763)
HARYANA,HISAR,Pali-DW,29.170833330447675,76.08055555973242,Manual,,,1996,POINT (76.08055555973242 29.17083333044767)
HARYANA,GURGAON,Jhanjrola,28.48333333038348,77.00416666997602,Manual,,,1996,POINT (77.00416666997602 28.48333333038348)
HARYANA,MAHENDRAGARH,Budhwal,27.81666666956639,76.16666667026311,Manual,,,1996,POINT (76.16666667026311 27.81666666956639)
HARYANA,SONIPAT,Ganaur-Pz,29.133333330008856,77.01444444035866,Manual,,,1996,POINT (77.01444444035866 29.13333333000886)
HARYANA,FARIDABAD,Nahar Singh Stadium,28.412500000257,77.33333332951767,Manual,,,1996,POINT (77.33333332951767 28.412500000257)
HARYANA,KARNAL,Rattak-Pz,29.582500000055827,76.62555555957161,Manual,,,1996,POINT (76.62555555957161 29.58250000005583)
HARYANA,AMBALA,Gadauli-Pz-M,30.38305555978725,77.15916666962882,Manual,,,1996,POINT (77.15916666962882 30.38305555978725)
HARYANA,BHIWANI,Unn-DW,28.644444439754114,76.38888889004217,Manual,,,1996,POINT (76.38888889004217 28.64444443975411)
HARYANA,GURGAON,Gangola-DW,28.261111109622153,77.20555556003578,Manual,,,1996,POINT (77.20555556003578 28.26111110962215)
HARYANA,FARIDABAD,Amarpur Pzm,28.203333329701852,77.43749999996845,Manual,,,1996,POINT (77.43749999996845 28.20333332970185)
HARYANA,KARNAL,Raipur 1(m),29.8499999996977,76.95000000051519,Manual,,,1996,POINT (76.95000000051519 29.8499999996977)
HARYANA,PALWAL,Hodel,27.883333330411354,77.34999999962767,Manual,12.64,11.14,1996,POINT (77.34999999962767 27.88333333041135)
HARYANA,KURUKSHETRA,Jandaula-Pz,29.88888889042909,76.57277778000724,Manual,,,1996,POINT (76.57277778000724 29.88888889042909)
HARYANA,SONIPAT,Datauli-Pz,29.159722219888405,77.08055555997005,Manual,,,1996,POINT (77.08055555997005 29.1597222198884)
HARYANA,MEWAT,Pinangwan,27.8958333301872,77.10000000006895,Manual,3.44,3.12,1996,POINT (77.10000000006895 27.8958333301872)
HARYANA,SIRSA,Sirsa-Pz,29.53583332997525,75.04944444012065,Manual,,,1996,POINT (75.04944444012065 29.53583332997525)
HARYANA,KAITHAL,Khanpur-Pz,29.851388890424943,76.37222221958127,Manual,,,1996,POINT (76.37222221958127 29.85138889042494)
HARYANA,KARNAL,Garhi Khajur S,29.53333333033136,77.05694443967954,Manual,,,1996,POINT (77.05694443967954 29.53333333033136)
HARYANA,SIRSA,Tigri-DW,29.917777779643988,74.90555555977825,Manual,,,1996,POINT (74.90555555977825 29.91777777964399)
HARYANA,PALWAL,Jaindapur,28.204166670170153,77.23888889008045,Manual,3.68,2.64,1996,POINT (77.23888889008045 28.20416667017015)
HARYANA,HISAR,Kanoh-Pz,29.372777779592088,75.75694443965511,Manual,,,1996,POINT (75.75694443965511 29.37277777959209)
HARYANA,HISAR,Mothmajri,29.208333330139972,76.0958333302142,Manual,4.42,4.17,1996,POINT (76.09583333021421 29.20833333013997)
HARYANA,KAITHAL,Rajaund-Pz,29.57777778017708,76.50972222013783,Manual,,,1996,POINT (76.50972222013783 29.57777778017708)
HARYANA,KARNAL,Nalvi Kalan-Pz,29.69388889043268,77.09861110949835,Manual,,,1996,POINT (77.09861110949835 29.69388889043268)
HARYANA,KURUKSHETRA,Santokhpur D,30.029166669750875,76.72500000025347,Manual,,,1996,POINT (76.72500000025347 30.02916666975088)
HARYANA,AMBALA,Laha,30.283333329965643,77.033333330048,Manual,,,1996,POINT (77.03333333004799 30.28333332996564)
HARYANA,BHIWANI,Kasni kalan,28.67916666974334,75.68749999958844,Manual,,,1996,POINT (75.68749999958844 28.67916666974334)
HARYANA,PALWAL,Bazida Pahar-DW,28.049999999985904,77.28888889044336,Manual,,,1996,POINT (77.28888889044336 28.0499999999859)
HARYANA,KURUKSHETRA,Mohri-Pz,30.24166666954264,76.85277777991324,Manual,,,1996,POINT (76.85277777991324 30.24166666954264)
HARYANA,SONIPAT,Sonepat,29.001388890240836,77.02083332963926,Manual,,,1996,POINT (77.02083332963926 29.00138889024084)
HARYANA,AMBALA,Khera Jattan-DW,30.450000000330657,76.91666667048673,Manual,,,1996,POINT (76.91666667048673 30.45000000033066)
HARYANA,FATEHABAD,Pilimudari,29.387500000091077,75.25833333045315,Manual,,,1996,POINT (75.25833333045315 29.38750000009108)
HARYANA,REWARI,Juddi-DW,28.429444440295548,76.43499999964949,Manual,,,1996,POINT (76.43499999964949 28.42944444029555)
HARYANA,SONIPAT,Bohela,29.0805555604238,76.85611110998828,Manual,2.88,,1996,POINT (76.85611110998828 29.0805555604238)
HARYANA,KURUKSHETRA,Sunder Pur-PZ,29.96000000039252,76.86416666993182,Manual,,,1996,POINT (76.86416666993182 29.96000000039252)
HARYANA,SONIPAT,Rithal Phogat,28.996666669942307,76.76111111018959,Manual,3.12,,1996,POINT (76.76111111018959 28.99666666994231)
HARYANA,PANIPAT,Mehmadpur,29.455555559626923,76.94305556036157,Manual,,,1996,POINT (76.94305556036157 29.45555555962692)
HARYANA,HISAR,Adampur-Pz,29.278333330342203,75.49194444016936,Manual,,,1996,POINT (75.49194444016936 29.2783333303422)
HARYANA,BHIWANI,Kairu-Pz,28.697777779625806,75.82222222014853,Manual,,,1996,POINT (75.82222222014853 28.69777777962581)
HARYANA,MAHENDRAGARH,Deroli Ahir,28.173333330123,76.15638889015301,Manual,,,1996,POINT (76.15638889015301 28.173333330123)
HARYANA,KARNAL,Nanhera,29.869444440300725,77.09166667045507,Manual,,,1996,POINT (77.09166667045507 29.86944444030073)
HARYANA,KARNAL,Raipur,29.87499999981221,76.924999999567,Manual,,,1996,POINT (76.92499999956701 29.87499999981221)
HARYANA,YAMUNANAGAR,Naggal1,30.069444439858607,77.28083333019818,Manual,,,1996,POINT (77.28083333019818 30.06944443985861)
HARYANA,JIND,Danoda Khurd-Pz,29.531944439987782,75.98750000019524,Manual,,,1996,POINT (75.98750000019524 29.53194443998778)
HARYANA,SIRSA,Ottu 1(s),29.499999999851326,74.89999999963867,Manual,8.7,7.78,1996,POINT (74.89999999963867 29.49999999985133)
HARYANA,ROHTAK,Lakhan Majara,29.043055560130693,76.47638889037553,Manual,3.75,1.78,1996,POINT (76.47638889037553 29.04305556013069)
HARYANA,YAMUNANAGAR,Jagadhri-Pz,30.166666670325185,77.30000000032207,Manual,,,1996,POINT (77.30000000032207 30.16666667032518)
HARYANA,AMBALA,Khanna Majra,30.247777779872532,76.65722222047832,Manual,,,1996,POINT (76.65722222047832 30.24777777987253)
HARYANA,FATEHABAD,Bhattukalan,29.37499999999104,75.3458333298078,Manual,2.0,1.85,1996,POINT (75.3458333298078 29.37499999999104)
HARYANA,SIRSA,Ottu 2(vs),29.499999999851326,74.89999999963867,Manual,,,1996,POINT (74.89999999963867 29.49999999985133)
HARYANA,JIND,Karsindhu-Dw,29.50250000001861,76.22666667006148,Manual,,,1996,POINT (76.22666667006148 29.50250000001861)
HARYANA,YAMUNANAGAR,Tala Kaur S,30.24166667040087,77.20416666955029,Manual,6.88,4.54,1996,POINT (77.20416666955029 30.24166667040087)
HARYANA,JIND,Ratta Khera-DW,29.386388889655713,76.63527777979779,Manual,,,1996,POINT (76.63527777979779 29.38638888965571)
HARYANA,AMBALA,Bhuragnpur-DW,30.28333332970182,76.64999999983036,Manual,,,1996,POINT (76.64999999983036 30.28333332970182)
HARYANA,KAITHAL,Tik,29.847222220354933,76.61666666983758,Manual,12.76,14.05,1996,POINT (76.61666666983758 29.84722222035493)
HARYANA,GURGAON,TUBEWELL NO. 6 OF HSIIDC NEAR PLOT NO. 237 SECTOR - 8 IMT MANESAR GURUGRAM,28.377778000117964,76.86910599951808,MANUAL,,,1996,POINT (76.86910599951808 28.37777800011796)
HARYANA,JHAJJAR,Mudsa,28.54583333038132,76.47916666947165,Manual,2.3,1.7,1996,POINT (76.47916666947165 28.54583333038132)
HARYANA,JIND,Pipalthae,29.758333329685378,76.10000000032461,Manual,,,1996,POINT (76.10000000032461 29.75833332968538)
HARYANA,SONIPAT,Barauli,29.00777778033157,77.17027777983719,Manual,,,1996,POINT (77.17027777983719 29.00777778033157)
HARYANA,PANIPAT,Burshyam,29.40000000006375,76.91666666953952,Manual,8.29,6.65,1996,POINT (76.91666666953952 29.40000000006375)
HARYANA,MAHENDRAGARH,Nangal(durga),27.903333330122827,76.04666667017031,Manual,,,1996,POINT (76.04666667017031 27.90333333012283)
HARYANA,PALWAL,Lakhnaka,28.034722220453702,77.1874999999814,Manual,,,1996,POINT (77.1874999999814 28.0347222204537)
HARYANA,YAMUNANAGAR,Dhaurang,30.062499999822283,77.19583333035891,Manual,,,1996,POINT (77.19583333035891 30.06249999982228)
HARYANA,BHIWANI,Adampur,28.51666667038641,76.21666666976633,Manual,10.6,10.44,1996,POINT (76.21666666976633 28.51666667038641)
HARYANA,KARNAL,Nisang1,29.68333332961083,76.75000000012159,Manual,,,1996,POINT (76.75000000012159 29.68333332961083)
HARYANA,SONIPAT,Gangana-DW,29.242777780437898,76.61194443982671,Manual,,,1996,POINT (76.61194443982671 29.2427777804379)
HARYANA,KURUKSHETRA,Thana,29.90833333012725,76.50833333002103,Manual,9.0,6.8,1996,POINT (76.50833333002103 29.90833333012725)
HARYANA,SIRSA,Goriwala,29.79166667026436,74.7083333298416,Manual,19.4,18.86,1996,POINT (74.70833332984159 29.79166667026436)
HARYANA,FATEHABAD,Dayar1,29.283333330152143,75.26666666995673,Manual,,,1996,POINT (75.26666666995673 29.28333333015214)
HARYANA,PANCHKULA,Raipurrani,30.587499999687353,77.02222222002396,Manual,7.35,16.93,1996,POINT (77.02222222002396 30.58749999968735)
HARYANA,MAHENDRAGARH,Dhanipartal,28.258333330164838,76.31388888955698,Manual,,,1996,POINT (76.31388888955698 28.25833333016484)
HARYANA,HISAR,Ghaibipur,29.42499999999445,75.92916666979858,Manual,7.84,7.68,1996,POINT (75.92916666979858 29.42499999999445)
HARYANA,SONIPAT,Pugthala,29.184722219623488,76.8791666697003,Manual,5.25,6.98,1996,POINT (76.8791666697003 29.18472221962349)
HARYANA,PALWAL,TUBEWELL AT PRITHLA PALWAL,28.22448000016871,77.28811000043062,MANUAL,,,1996,POINT (77.28811000043062 28.22448000016871)
HARYANA,KARNAL,Majra Roran,29.78749999965177,76.72916666976829,Manual,,,1996,POINT (76.72916666976829 29.78749999965177)
HARYANA,KURUKSHETRA,Sunarain Dhanani-PZ,30.1027777802517,76.988888889595,Manual,,,1996,POINT (76.988888889595 30.1027777802517)
HARYANA,PANIPAT,TUBEWELL NEAR 25 MLD STP SEWAH PANIPAT,29.33952999960068,76.93950099987914,MANUAL,,,1996,POINT (76.93950099987914 29.33952999960068)
HARYANA,SONIPAT,Bichpuri1,29.20777777978938,76.6652777797978,Manual,4.33,2.68,1996,POINT (76.6652777797978 29.20777777978938)
HARYANA,HISAR,Petwar-DW,29.169444439984854,76.16388888978574,Manual,,,1996,POINT (76.16388888978574 29.16944443998485)
HARYANA,HISAR,Khanda Kheri-Pz,29.208888889993194,76.23333332996931,Manual,,,1996,POINT (76.23333332996931 29.20888888999319)
HARYANA,PANIPAT,Nimbri- Pz,29.38055556024848,77.03611111015834,Manual,,,1996,POINT (77.03611111015834 29.38055556024848)
HARYANA,KAITHAL,Lohakhera1(vs),29.666666670117987,75.91666666999471,Manual,9.0,9.4,1996,POINT (75.91666666999471 29.66666667011799)
HARYANA,PANIPAT,Khelella Pehl M,29.293055560339127,76.979166670409,Manual,,,1996,POINT (76.979166670409 29.29305556033913)
HARYANA,JIND,Rasidan Pz,29.727777780407344,76.03333333033741,Manual,,,1996,POINT (76.03333333033741 29.72777778040734)
HARYANA,HISAR,Samani,29.408333330317785,75.68333332971893,Manual,12.25,11.79,1996,POINT (75.68333332971893 29.40833333031778)
HARYANA,SONIPAT,Garhi-ujle-khan,29.138888889584273,76.71388888990711,Manual,7.52,11.18,1996,POINT (76.71388888990711 29.13888888958427)
HARYANA,MEWAT,Naoli,27.8541666696238,76.97222221951324,Manual,,1.06,1996,POINT (76.97222221951324 27.8541666696238)
HARYANA,GURGAON,Shikohpur,28.369444440321413,76.98611111025652,Manual,,,1996,POINT (76.98611111025652 28.36944444032141)
HARYANA,SIRSA,Ellenabed,29.466666670448934,74.63333332980442,Manual,,,1996,POINT (74.63333332980442 29.46666667044893)
HARYANA,GURGAON,Bhora Kalan-Pz,28.29999999954724,76.83611110989263,Manual,,,1996,POINT (76.83611110989263 28.29999999954724)
HARYANA,HISAR,Chindhar-DW,29.379166670068447,75.47916666964043,Manual,,,1996,POINT (75.47916666964043 29.37916667006845)
HARYANA,JHAJJAR,Chuchakwas,28.59999999984116,76.50833333045077,Manual,4.01,3.18,1996,POINT (76.50833333045077 28.59999999984116)
HARYANA,HISAR,Juglan,29.256944439781922,75.79444444045531,Manual,,,1996,POINT (75.79444444045531 29.25694443978192)
HARYANA,FARIDABAD,Chhainsa,28.259444440424033,77.47722222040058,Manual,,,1996,POINT (77.47722222040058 28.25944444042403)
HARYANA,REWARI,Jatusana1,28.358333329727675,76.52916666972683,Manual,,,1996,POINT (76.52916666972683 28.35833332972767)
HARYANA,KURUKSHETRA,Kharindwa,30.108333330233478,76.93888888962594,Manual,,,1996,POINT (76.93888888962594 30.10833333023348)
HARYANA,PANIPAT,Etola-Pz-S,29.34722221959372,76.74166667034528,Manual,,,1996,POINT (76.74166667034528 29.34722221959372)
HARYANA,KURUKSHETRA,Landi-PZ,30.220555560365195,76.86194444050005,Manual,,,1996,POINT (76.86194444050005 30.2205555603652)
HARYANA,AMBALA,Gadauli-Pz-D,30.38305555978725,77.15916666962882,Manual,,,1996,POINT (77.15916666962882 30.38305555978725)
HARYANA,REWARI,Kosli,28.41388888990952,76.48333333032657,Manual,,11.37,1996,POINT (76.48333333032657 28.41388888990952)
HARYANA,KARNAL,Baragaon-Pz,29.75638888997131,77.06611110973934,Manual,,,1996,POINT (77.06611110973934 29.75638888997131)
HARYANA,KURUKSHETRA,Jogna Khera,29.973611109832557,76.82777778046241,Manual,,,1996,POINT (76.82777778046241 29.97361110983256)
HARYANA,KARNAL,Jamba,29.816666669841343,76.76666666969847,Manual,11.67,,1996,POINT (76.76666666969847 29.81666666984134)
HARYANA,SONIPAT,Qatlupur Pz,28.834722219928736,77.02249999988895,Manual,,,1996,POINT (77.02249999988895 28.83472221992874)
HARYANA,JHAJJAR,Dighal,28.762500000147586,76.63055555970101,Manual,3.12,2.47,1996,POINT (76.63055555970101 28.76250000014759)
HARYANA,MAHENDRAGARH,Janjadiawas,28.241666670065523,76.11666667038209,Manual,,,1996,POINT (76.11666667038209 28.24166667006552)
HARYANA,KARNAL,Majura,29.691666670053678,76.8416666703653,Manual,9.53,9.65,1996,POINT (76.8416666703653 29.69166667005368)
HARYANA,JIND,Jind,29.324999999984456,76.30833333025194,Manual,7.93,,1996,POINT (76.30833333025194 29.32499999998446)
HARYANA,HISAR,Lohariraghu,29.262500000160752,76.05833333001598,Manual,1.69,1.24,1996,POINT (76.05833333001598 29.26250000016075)
HARYANA,SONIPAT,Mundlana,29.20416666960004,76.76666667034927,Manual,1.75,,1996,POINT (76.76666667034927 29.20416666960004)
HARYANA,PANIPAT,K.prahladpur,29.293055560339127,76.979166670409,Manual,,,1996,POINT (76.979166670409 29.29305556033913)
HARYANA,JIND,Sanchakhera,29.554166669789048,76.05000000022076,Manual,2.28,3.31,1996,POINT (76.05000000022076 29.55416666978905)
HARYANA,SONIPAT,Omaidgarh,29.115277779991764,77.10972222013748,Manual,,,1996,POINT (77.10972222013748 29.11527777999176)
HARYANA,KARNAL,Majraroran,29.78749999965177,76.72916666976829,Manual,,,1996,POINT (76.72916666976829 29.78749999965177)
HARYANA,KARNAL,Ranwar-Pz,29.63527778016593,77.01861110962464,Manual,,,1996,POINT (77.01861110962464 29.63527778016593)
HARYANA,MAHENDRAGARH,Rattan Kalan,28.17694443977189,76.28500000039747,Manual,,,1996,POINT (76.28500000039747 28.17694443977189)
HARYANA,YAMUNANAGAR,Sadhaura S,30.383333330269252,77.21666667046063,Manual,4.12,2.48,1996,POINT (77.21666667046063 30.38333333026925)
HARYANA,JHAJJAR,Kherka Gujjar- DW,28.63888888967505,76.78666666954565,Manual,,,1996,POINT (76.78666666954565 28.63888888967505)
HARYANA,KAITHAL,Rajound S,29.60000000039528,76.48333333049581,Manual,,,1996,POINT (76.48333333049581 29.60000000039528)
HARYANA,FARIDABAD,"Nhiv,cgwb",28.418055560251737,77.3138888904458,Manual,,,1996,POINT (77.3138888904458 28.41805556025174)
HARYANA,BHIWANI,Alampur-DW,28.799999999992433,75.83277777952412,Manual,,,1996,POINT (75.83277777952412 28.79999999999243)
HARYANA,SIRSA,Malleka,29.441666669755268,74.87083333001131,Manual,,,1996,POINT (74.87083333001131 29.44166666975527)
HARYANA,REWARI,Nangal Mundi-DW,28.26000000006035,76.66222221971566,Manual,,,1996,POINT (76.66222221971566 28.26000000006035)
HARYANA,MAHENDRAGARH,Khodma-DW,28.131666670268334,76.04222222046585,Manual,,,1996,POINT (76.04222222046585 28.13166667026833)
HARYANA,KURUKSHETRA,Tatka-PZ,30.03999999997653,76.95722221994079,Manual,,,1996,POINT (76.95722221994079 30.03999999997653)
HARYANA,REWARI,Bawal,28.07083333017813,76.57916667006249,Manual,16.77,16.53,1996,POINT (76.57916667006249 28.07083333017813)
HARYANA,SIRSA,Ali Mohmmad,29.462500000374657,75.10500000042572,Manual,21.65,21.56,1996,POINT (75.10500000042572 29.46250000037466)
HARYANA,SONIPAT,Kheora,28.96249999989477,77.1249999998062,Manual,,,1996,POINT (77.12499999980621 28.96249999989477)
HARYANA,KAITHAL,Ghararsi-PZ,29.910555560240358,76.70194444036038,Manual,,,1996,POINT (76.70194444036038 29.91055556024036)
HARYANA,KARNAL,Kachhwa,29.72499999983532,76.89444444023513,Manual,8.54,8.94,1996,POINT (76.89444444023513 29.72499999983532)
HARYANA,KARNAL,Gharaunda-Pz,29.536111109978773,76.96944444051762,Manual,,,1996,POINT (76.96944444051762 29.53611110997877)
HARYANA,PALWAL,Bamnikhera,28.06249999988785,77.34166667038896,Manual,4.4,3.27,1996,POINT (77.34166667038896 28.06249999988785)
HARYANA,PALWAL,Hassanpur,27.966666669630683,77.49027778026675,Manual,,14.39,1996,POINT (77.49027778026675 27.96666666963068)
HARYANA,KARNAL,Anchla-Pz,29.572777780304342,76.84944443993867,Manual,,,1996,POINT (76.84944443993867 29.57277778030434)
HARYANA,BHIWANI,Kaloud,28.79583333044713,75.64027778019106,Manual,,,1996,POINT (75.64027778019106 28.79583333044713)
HARYANA,GURGAON,Bandhwari,28.397222220159183,77.15416666975952,Manual,,,1996,POINT (77.15416666975952 28.39722222015918)
HARYANA,KAITHAL,Jajanpur-Pz-D,29.904999999653636,76.60666667048676,Manual,,,1996,POINT (76.60666667048676 29.90499999965364)
HARYANA,SONIPAT,Mattand-DW,29.25444443960999,76.70083333046182,Manual,,,1996,POINT (76.70083333046182 29.25444443960999)
HARYANA,PALWAL,Palwal1,28.14999999971053,77.32500000046784,Manual,,,1996,POINT (77.32500000046784 28.14999999971053)
HARYANA,KAITHAL,Padla 2(d),30.099999999746853,76.30000000035642,Manual,,,1996,POINT (76.30000000035642 30.09999999974685)
HARYANA,KAITHAL,Songri-DW,29.62222222036478,76.37777778004087,Manual,,,1996,POINT (76.37777778004087 29.62222222036478)
HARYANA,JIND,Baroda,29.43888888972853,76.18888889026756,Manual,,,1996,POINT (76.18888889026756 29.43888888972853)
HARYANA,HISAR,Gain Pura,29.350000000252084,76.02083333030916,Manual,,,1996,POINT (76.02083333030916 29.35000000025208)
HARYANA,KARNAL,Kirmach,29.905277780400013,76.7899999997525,Manual,,,1996,POINT (76.7899999997525 29.90527778040001)
HARYANA,KARNAL,Islam Nagar-Pz-M,29.874999999711772,77.11249999958358,Manual,,,1996,POINT (77.11249999958358 29.87499999971177)
HARYANA,KARNAL,Jhanjari-Pz,29.756944439739364,76.96944443994478,Manual,,,1996,POINT (76.96944443994478 29.75694443973936)
HARYANA,SIRSA,Bharu Khera-DW,29.74999999997901,74.61611110985129,Manual,,,1996,POINT (74.61611110985129 29.74999999997901)
HARYANA,PALWAL,Barauli,28.079166669943987,77.18749999999564,Manual,,,1996,POINT (77.18749999999564 28.07916666994399)
HARYANA,SONIPAT,Banwasa-DW,29.158333329754843,76.56555556007251,Manual,,,1996,POINT (76.56555556007251 29.15833332975484)
HARYANA,KARNAL,Chaura-Pz,29.55833332992945,77.03750000030297,Manual,,,1996,POINT (77.03750000030297 29.55833332992945)
HARYANA,SONIPAT,Tihar Malikpur-DW,29.047222219789205,76.82361110951494,Manual,,,1996,POINT (76.82361110951494 29.04722221978921)
HARYANA,REWARI,Guriani,28.358333329727675,76.52916666972683,Manual,,12.58,1996,POINT (76.52916666972683 28.35833332972767)
HARYANA,JIND,Atikrishna1(s),29.287499999703183,76.33888889026456,Manual,9.21,,1996,POINT (76.33888889026456 29.28749999970318)
HARYANA,FARIDABAD,Dharaj,28.345833329561682,77.19583333047295,Manual,3.83,1.99,1996,POINT (77.19583333047295 28.34583332956168)
HARYANA,JHAJJAR,Bhurawas-Pz,28.45472222045182,76.47666666995002,Manual,,,1996,POINT (76.47666666995002 28.45472222045182)
HARYANA,AMBALA,Ambala Harding,30.351388889767765,76.84722221997866,Manual,11.07,9.86,1996,POINT (76.84722221997866 30.35138888976777)
HARYANA,BHIWANI,HAND PUMP INSTALLED NEAR PIR BABA MANDIR SECTOR - 13 BHIWANI,28.81497999979352,76.13926099974299,MANUAL,,,1996,POINT (76.13926099974299 28.81497999979352)
HARYANA,JIND,Safidon  (shallow),29.40416666992159,76.60555555956545,Manual,,,1996,POINT (76.60555555956545 29.40416666992159)
HARYANA,REWARI,Massani,28.2055555600355,76.66666667035591,Manual,,,1996,POINT (76.66666667035591 28.2055555600355)
HARYANA,SONIPAT,Purkhas,29.10833333028518,76.9166666694927,Manual,5.65,,1996,POINT (76.9166666694927 29.10833333028518)
HARYANA,KARNAL,Salwan-B,29.500000000176286,76.7347222200577,Manual,,,1996,POINT (76.73472222005771 29.50000000017629)
HARYANA,PALWAL,Hodel1,27.883333330411354,77.34999999962767,Manual,,,1996,POINT (77.34999999962767 27.88333333041135)
HARYANA,SONIPAT,Kheaora,28.96666667026297,77.12083333018667,Manual,,,1996,POINT (77.12083333018667 28.96666667026297)
HARYANA,KARNAL,Gondar-Pz,29.658333329945503,76.75000000052465,Manual,,,1996,POINT (76.75000000052465 29.6583333299455)
HARYANA,JIND,Karsola-DW,29.139166669784228,76.41416667019081,Manual,,,1996,POINT (76.41416667019081 29.13916666978423)
HARYANA,HISAR,Khotkalan,29.38750000013686,76.17499999968122,Manual,9.38,8.93,1996,POINT (76.17499999968122 29.38750000013686)
HARYANA,KURUKSHETRA,Kaulapur D,30.025000000280446,76.895833330141,Manual,,,1996,POINT (76.895833330141 30.02500000028045)
HARYANA,BHIWANI,Gurera-pz,28.94583332971756,75.51666666974235,Manual,,,1996,POINT (75.51666666974235 28.94583332971756)
HARYANA,KURUKSHETRA,Hatira  (s),29.95000000038544,76.76250000043008,Manual,,,1996,POINT (76.76250000043008 29.95000000038544)
HARYANA,KAITHAL,Chanderkalan,29.64583332996314,75.81944444014046,Manual,6.65,6.52,1996,POINT (75.81944444014046 29.64583332996314)
HARYANA,PANIPAT,Sink,29.318611109981667,76.64027777970564,Manual,,,1996,POINT (76.64027777970564 29.31861110998167)
HARYANA,ROHTAK,Bhal Anandpur,28.88055555975156,76.51249999961571,Manual,1.79,,1996,POINT (76.51249999961571 28.88055555975156)
HARYANA,GURGAON,Wazirpur-Pz,28.42500000023434,76.88333332995335,Manual,,,1996,POINT (76.88333332995335 28.42500000023434)
HARYANA,REWARI,Lukhi,28.383333330413297,76.3708333302949,Manual,,6.23,1996,POINT (76.3708333302949 28.3833333304133)
HARYANA,MAHENDRAGARH,Barda-DW,28.33333333003414,76.00333333028244,Manual,,,1996,POINT (76.00333333028244 28.33333333003414)
HARYANA,MAHENDRAGARH,Dongraahir,28.18888888991491,76.21666666960115,Manual,24.35,24.06,1996,POINT (76.21666666960115 28.18888888991491)
HARYANA,KARNAL,Sarfabad (shallow),29.6888888900757,77.07499999969856,Manual,,,1996,POINT (77.07499999969856 29.6888888900757)
HARYANA,KAITHAL,TUBEWELL NO. 2 NEAR GURUDWARA VILLAGE BHATIA,30.082976999582485,76.26326700020068,MANUAL,,,1996,POINT (76.26326700020068 30.08297699958248)
HARYANA,SIRSA,Sirsa1,29.54166666990969,75.03333333025635,Manual,,,1996,POINT (75.03333333025635 29.54166666990969)
HARYANA,GURGAON,Wazirpur1,28.42916667033019,76.92499999987393,Manual,7.76,7.48,1996,POINT (76.92499999987393 28.42916667033019)
HARYANA,KARNAL,Dadupur-PZ,29.767499999863357,76.97305556027995,Manual,,,1996,POINT (76.97305556027995 29.76749999986336)
HARYANA,BHIWANI,Bhiwani,28.783333330125927,76.13333333018213,Manual,1.93,1.42,1996,POINT (76.13333333018213 28.78333333012593)
HARYANA,JIND,Pillukhera,29.336111110423058,76.4875000000107,Manual,,3.4,1996,POINT (76.4875000000107 29.33611111042306)
HARYANA,YAMUNANAGAR,Khizrabad,30.300000000092354,77.48750000006349,Manual,14.68,12.86,1996,POINT (77.48750000006349 30.30000000009235)
HARYANA,KURUKSHETRA,Naisi-Pz,30.077777780010447,76.64305555947506,Manual,,,1996,POINT (76.64305555947506 30.07777778001045)
HARYANA,KARNAL,Chorpur 1(d),29.78333333020587,77.11666667001569,Manual,,,1996,POINT (77.11666667001569 29.78333333020587)
HARYANA,KAITHAL,Kheri Lamba-DW,29.706944439772663,76.22916666988273,Manual,,,1996,POINT (76.22916666988273 29.70694443977266)
HARYANA,PANCHKULA,Batour,30.552777779593548,76.9497222196119,Manual,,,1996,POINT (76.9497222196119 30.55277777959355)
HARYANA,SONIPAT,Mohana Pzm,29.154166669668573,77.11250000002585,Manual,,,1996,POINT (77.11250000002585 29.15416666966857)
HARYANA,MEWAT,Sarauli-DW,27.936111110096544,77.1694444404977,Manual,,,1996,POINT (77.1694444404977 27.93611111009654)
HARYANA,GURGAON,BOREWELL OF PHED OFFICE PATAUDI GURUGRAM,28.32863199965659,76.7807799995067,MANUAL,,,1996,POINT (76.78077999950671 28.32863199965659)
HARYANA,BHIWANI,Lachhmanpur,28.82666667034325,75.87694444049977,Manual,,,1996,POINT (75.87694444049977 28.82666667034325)
HARYANA,SONIPAT,Larsauli-Pz,29.09249999991517,77.03472221978579,Manual,,,1996,POINT (77.03472221978579 29.09249999991517)
HARYANA,KARNAL,Dadlana(shallow),29.49166667024088,76.8972222196824,Manual,,,1996,POINT (76.8972222196824 29.49166667024088)
HARYANA,HISAR,Dhansu,29.216666669734654,75.79583332999464,Manual,10.92,10.71,1996,POINT (75.79583332999464 29.21666666973465)
HARYANA,AMBALA,Panjokhra,30.40833332985235,76.84583333042617,Manual,4.52,3.93,1996,POINT (76.84583333042617 30.40833332985235)
HARYANA,HISAR,Talwani Rana-DW,29.220833330058014,75.75833333000033,Manual,,,1996,POINT (75.75833333000033 29.22083333005801)
HARYANA,AMBALA,Naraingarh-Pz,30.46666666981045,77.11666666993536,Manual,,,1996,POINT (77.11666666993536 30.46666666981045)
HARYANA,JHAJJAR,Kamalgarh-DW,28.62000000008426,76.69305556021996,Manual,,,1996,POINT (76.69305556021996 28.62000000008426)
HARYANA,SONIPAT,Ladpur-Pz,28.914444439880363,77.03944444015606,Manual,,,1996,POINT (77.03944444015606 28.91444443988036)
HARYANA,PALWAL,Dighaut,28.03749999994281,77.37500000002332,Manual,,,1996,POINT (77.37500000002332 28.03749999994281)
HARYANA,SONIPAT,Janti Khurd-Pz,28.845833330431073,77.15833333015023,Manual,,,1996,POINT (77.15833333015023 28.84583333043107)
HARYANA,AMBALA,Hasanpur-DW,30.238611110328435,76.70611110993642,Manual,,,1996,POINT (76.70611110993642 30.23861111032843)
HARYANA,MEWAT,Nuh1,28.10416666997423,77.0708333303769,Manual,2.0,,1996,POINT (77.0708333303769 28.10416666997423)
HARYANA,MAHENDRAGARH,Pali-Pz,28.338888889788493,76.1361111096197,Manual,,,1996,POINT (76.1361111096197 28.33888888978849)
HARYANA,REWARI,Bahu,28.43611110985482,76.31666667050717,Manual,,,1996,POINT (76.31666667050717 28.43611110985482)
HARYANA,,GROUND WATER AT GODHARA,22.77880300004579,73.6142810003989,MANUAL,,,1996,POINT (73.6142810003989 22.77880300004579)
HARYANA,SIRSA,Sri Jiwan Nagar-B,29.537500000453008,74.74166666985047,Manual,,,1996,POINT (74.74166666985047 29.53750000045301)
HARYANA,REWARI,Manethi(kund),28.149999999665194,76.38000000041825,Manual,22.72,20.16,1996,POINT (76.38000000041825 28.14999999966519)
HARYANA,AMBALA,Mohra D,30.27083332962516,76.85833332967974,Manual,5.2,,1996,POINT (76.85833332967974 30.27083332962516)
HARYANA,SIRSA,Dhudianwali1(s),29.599999999548544,74.71666666954278,Manual,,,1996,POINT (74.71666666954278 29.59999999954854)
HARYANA,KURUKSHETRA,Ishaque S,30.016666670011023,76.49166667024456,Manual,13.48,,1996,POINT (76.49166667024456 30.01666667001102)
HARYANA,MAHENDRAGARH,Kharkara Bas-DW,28.358888889622737,76.24888888981673,Manual,,,1996,POINT (76.24888888981673 28.35888888962274)
HARYANA,PALWAL,Banchari-DW,27.934166670242032,77.49999999966488,Manual,,,1996,POINT (77.49999999966488 27.93416667024203)
HARYANA,ROHTAK,Lahli-DW,28.854166669802066,76.45833332975101,Manual,,,1996,POINT (76.45833332975101 28.85416666980207)
HARYANA,FATEHABAD,Machiwali-DW,29.481944439768014,75.66750000019134,Manual,,,1996,POINT (75.66750000019134 29.48194443976801)
HARYANA,SONIPAT,Sandal Kalan,29.056111110197076,76.98472221987312,Manual,,,1996,POINT (76.98472221987312 29.05611111019708)
HARYANA,JIND,Jamni S,29.368333329554755,76.49555556007995,Manual,,,1996,POINT (76.49555556007995 29.36833332955475)
HARYANA,YAMUNANAGAR,Sabapur Ew S,30.1102777797786,77.36250000034752,Manual,,,1996,POINT (77.36250000034752 30.1102777797786)
HARYANA,GURGAON,Harchandpur Pz,28.26666666972619,77.13888888960463,Manual,,,1996,POINT (77.13888888960463 28.26666666972619)
HARYANA,AMBALA,Adhoya,30.19166667027483,77.04999999999471,Manual,,,1996,POINT (77.04999999999471 30.19166667027483)
HARYANA,SIRSA,Jodhkha-Pz,29.49166666999435,75.20833333047446,Manual,,,1996,POINT (75.20833333047446 29.49166666999435)
HARYANA,PANIPAT,Shahpur,29.25416666990216,76.80833333026969,Manual,2.87,0.76,1996,POINT (76.80833333026969 29.25416666990216)
HARYANA,KURUKSHETRA,Samalkhi-Pz,30.234999999905444,76.82777778015307,Manual,,,1996,POINT (76.82777778015307 30.23499999990544)
HARYANA,BHIWANI,Mandola,28.5250000002033,76.22083333004937,Manual,,,1996,POINT (76.22083333004937 28.5250000002033)
HARYANA,KARNAL,Kiwana,29.602777780368857,76.78888889041872,Manual,7.31,5.72,1996,POINT (76.78888889041872 29.60277778036886)
HARYANA,KURUKSHETRA,Mathana 2(d),29.98333332991022,76.9666666699658,Manual,,,1996,POINT (76.9666666699658 29.98333332991022)
HARYANA,ROHTAK,Sundana-DW,28.780555559958444,76.5277777804167,Manual,,,1996,POINT (76.5277777804167 28.78055555995844)
HARYANA,JHAJJAR,Majra Deswal,28.66944444031547,76.47083333009245,Manual,,,1996,POINT (76.47083333009245 28.66944444031547)
HARYANA,FARIDABAD,Gharora1,28.34583333018627,77.47083332985844,Manual,,,1996,POINT (77.47083332985844 28.34583333018627)
HARYANA,SONIPAT,Ganaur,29.126388890421573,77.02222222021061,Manual,,,1996,POINT (77.02222222021061 29.12638889042157)
HARYANA,MEWAT,Taoru,28.20000000026024,76.95000000004572,Manual,15.62,14.14,1996,POINT (76.95000000004572 28.20000000026024)
HARYANA,FATEHABAD,Suniyana,29.529166670428943,75.67222221973049,Manual,2.3,1.45,1996,POINT (75.67222221973049 29.52916667042894)
HARYANA,FATEHABAD,Gorakhpur-DW,29.448611109652944,75.67083332966787,Manual,,,1996,POINT (75.67083332966787 29.44861110965294)
HARYANA,PANCHKULA,Golpura-DW,30.50500000031109,76.98611111000191,Manual,,,1996,POINT (76.98611111000191 30.50500000031109)
HARYANA,MAHENDRAGARH,Buchawas,28.30000000037008,76.21666667027878,Manual,22.95,21.57,1996,POINT (76.21666667027878 28.30000000037008)
HARYANA,FARIDABAD,Sotai,28.2916666702752,77.36111111034278,Manual,,,1996,POINT (77.36111111034278 28.2916666702752)
HARYANA,KAITHAL,Harigarh Kingan-Pz,30.06111110969066,76.3999999998425,Manual,,,1996,POINT (76.39999999984251 30.06111110969066)
HARYANA,ROHTAK,Makhrauli Khurd,28.933333329547967,76.64166667026957,Manual,1.65,1.63,1996,POINT (76.64166667026957 28.93333332954797)
HARYANA,KARNAL,Assandh-Pz,29.52277777972918,76.60416666963994,Manual,,,1996,POINT (76.60416666963994 29.52277777972918)
HARYANA,AMBALA,Bhurewala-Pz,30.500000000178808,77.08333332967047,Manual,,,1996,POINT (77.08333332967047 30.50000000017881)
HARYANA,KARNAL,Baldi,29.716666670411726,76.99166667039005,Manual,,,1996,POINT (76.99166667039005 29.71666667041173)
HARYANA,FATEHABAD,Ayalki,29.579166669591594,75.5333333302795,Manual,27.32,27.26,1996,POINT (75.5333333302795 29.57916666959159)
HARYANA,KARNAL,KheriNaru-Pz-D,29.648611109829158,76.91361110983453,Manual,,,1996,POINT (76.91361110983453 29.64861110982916)
HARYANA,KAITHAL,Barna-PZ,29.909166669725447,76.73222221982552,Manual,,,1996,POINT (76.73222221982552 29.90916666972545)
HARYANA,JHAJJAR,Basonda Tripati-Pz,28.384722219758906,76.67638889033186,Manual,,,1996,POINT (76.67638889033186 28.38472221975891)
HARYANA,KURUKSHETRA,Lukhi-Pz,30.182222220433932,76.72916666992631,Manual,,,1996,POINT (76.72916666992631 30.18222222043393)
HARYANA,GURGAON,Bhundsi,28.35000000031187,77.06249999958243,Manual,7.25,5.53,1996,POINT (77.06249999958243 28.35000000031187)
HARYANA,FATEHABAD,Badalgarh,29.76388888962539,75.65000000026673,Manual,,,1996,POINT (75.65000000026673 29.76388888962539)
HARYANA,MAHENDRAGARH,Jasawas,28.230555560384087,76.16805555970727,Manual,,,1996,POINT (76.16805555970727 28.23055556038409)
HARYANA,HISAR,Litani-DW,29.454166670211396,75.98749999950702,Manual,,,1996,POINT (75.98749999950702 29.4541666702114)
HARYANA,MAHENDRAGARH,Jassawas,28.23194443988612,76.16944443973351,Manual,,,1996,POINT (76.16944443973351 28.23194443988612)
HARYANA,AMBALA,Boh-DW,30.370277779601807,76.87305556003373,Manual,,,1996,POINT (76.87305556003373 30.37027777960181)
HARYANA,SIRSA,Mammer Khera-Pz,29.67222221995861,74.6569444398412,Manual,,,1996,POINT (74.6569444398412 29.67222221995861)
HARYANA,BHIWANI,Bawani Khera-PZ,28.945000000365358,76.03333332972629,Manual,,,1996,POINT (76.03333332972629 28.94500000036536)
HARYANA,PANIPAT,Kaith-Dw,29.249166670389684,76.81333333041617,Manual,,,1996,POINT (76.81333333041617 29.24916667038968)
HARYANA,MEWAT,Akaira,28.008333330114738,77.00416667002469,Manual,,,1996,POINT (77.00416667002469 28.00833333011474)
HARYANA,MAHENDRAGARH,Pali,28.339444440200896,76.13333333042888,Manual,23.8,23.54,1996,POINT (76.13333333042888 28.3394444402009)
HARYANA,HISAR,Uklana,29.508333329671522,75.8791666701402,Manual,4.85,4.67,1996,POINT (75.87916667014019 29.50833332967152)
HARYANA,HISAR,Mohabat Pur,29.22499999977945,75.44999999992137,Manual,,,1996,POINT (75.44999999992137 29.22499999977945)
HARYANA,AMBALA,Ambala Cantt,30.383333329929986,76.7624999995289,Manual,4.2,3.34,1996,POINT (76.7624999995289 30.38333332992999)
HARYANA,PANIPAT,Sewah,29.341666670299322,76.97916666976707,Manual,,,1996,POINT (76.97916666976707 29.34166667029932)
HARYANA,MEWAT,Sikarwa,27.954166670171404,77.14444444030136,Manual,0.77,0.23,1996,POINT (77.14444444030136 27.9541666701714)
HARYANA,YAMUNANAGAR,Dhaurang M,30.066666669666557,77.1916666695887,Manual,,,1996,POINT (77.1916666695887 30.06666666966656)
HARYANA,FATEHABAD,Badopal,29.445833330250053,75.55000000030496,Manual,1.38,1.11,1996,POINT (75.55000000030496 29.44583333025005)
HARYANA,SIRSA,Chotala-Pz,29.77361111030911,74.5249999999216,Manual,,,1996,POINT (74.5249999999216 29.77361111030911)
HARYANA,YAMUNANAGAR,Antawa-Pz,30.09999999982469,77.11666666958891,Manual,,,1996,POINT (77.11666666958891 30.09999999982469)
HARYANA,REWARI,Dharu Hera,28.19999999983701,76.79583332975464,Manual,11.67,,1996,POINT (76.79583332975464 28.19999999983701)
HARYANA,AMBALA,Barara M,30.212500000051108,77.0333333303658,Manual,23.78,25.02,1996,POINT (77.03333333036581 30.21250000005111)
HARYANA,PANIPAT,Bandh-Dw,29.2463888903858,76.94888889017466,Manual,,,1996,POINT (76.94888889017466 29.2463888903858)
HARYANA,KARNAL,Nasirpur-Pz,29.67222222037664,77.12777778048287,Manual,,,1996,POINT (77.12777778048287 29.67222222037664)
HARYANA,SIRSA,Goriwala-Pz,29.787500000291747,74.75555555952397,Manual,,,1996,POINT (74.75555555952397 29.78750000029175)
HARYANA,PALWAL,TUBEWELL AT HATHIN PLAWAL,28.038710000222807,77.24281999993299,MANUAL,,,1996,POINT (77.24281999993299 28.03871000022281)
HARYANA,AMBALA,Ambala Race Cor,30.372222219804005,76.86250000001904,Manual,,,1996,POINT (76.86250000001904 30.37222221980401)
HARYANA,REWARI,Jauniwas,28.215277780401923,76.75694443979333,Manual,,,1996,POINT (76.75694443979333 28.21527778040192)
HARYANA,HISAR,Ladwi-DW,29.23194444010875,75.55277778041761,Manual,,,1996,POINT (75.55277778041761 29.23194444010875)
HARYANA,KAITHAL,Dhons-Pz,29.81166666999207,76.53111110983897,Manual,,,1996,POINT (76.53111110983897 29.81166666999207)
HARYANA,BHIWANI,Mauhala,28.847222220308822,75.62277778033345,Manual,24.76,24.3,1996,POINT (75.62277778033345 28.84722222030882)
HARYANA,FATEHABAD,Bahbalpur,29.623611109595913,75.34444443973804,Manual,,,1996,POINT (75.34444443973804 29.62361110959591)
HARYANA,PANIPAT,Naultha,29.30250000006284,76.89333333004593,Manual,,,1996,POINT (76.89333333004593 29.30250000006284)
HARYANA,KARNAL,Asandh,29.508333329677953,76.82500000011017,Manual,,6.86,1996,POINT (76.82500000011017 29.50833332967795)
HARYANA,GURGAON,Jamalpur,28.37499999978169,76.83750000034256,Manual,,,1996,POINT (76.83750000034256 28.37499999978169)
HARYANA,YAMUNANAGAR,Bhambauli-1 (m),30.166666670308327,77.2000000000953,Manual,10.39,14.9,1996,POINT (77.2000000000953 30.16666667030833)
HARYANA,FATEHABAD,Bhattukalan-Pz,29.36666667021812,75.3416666703473,Manual,,,1996,POINT (75.34166667034729 29.36666667021812)
HARYANA,MEWAT,Ferozepurzhirka,27.791666669610766,76.94999999951958,Manual,,,1996,POINT (76.94999999951958 27.79166666961077)
HARYANA,REWARI,Khol,28.195833330211254,76.40000000029816,Manual,,,1996,POINT (76.40000000029816 28.19583333021125)
HARYANA,KURUKSHETRA,Sharifgarh S,30.09722221998724,76.87500000000514,Manual,19.44,,1996,POINT (76.87500000000514 30.09722221998724)
HARYANA,HISAR,Bhotal Jattan-DW,29.105555559883946,76.12361111009722,Manual,,,1996,POINT (76.12361111009722 29.10555555988395)
HARYANA,KARNAL,Chochra-PZ,29.632222220007982,76.63111111017105,Manual,,,1996,POINT (76.63111111017105 29.63222222000798)
HARYANA,KAITHAL,Kachana,29.63333333000473,76.43749999988282,Manual,0.72,0.35,1996,POINT (76.43749999988282 29.63333333000473)
HARYANA,HISAR,Kharakpunia,29.34444443977189,76.0083333301895,Manual,6.68,6.3,1996,POINT (76.0083333301895 29.34444443977189)
HARYANA,SIRSA,Jamal- Pz,29.327777779944626,74.9861111103277,Manual,,,1996,POINT (74.9861111103277 29.32777777994463)
HARYANA,GURGAON,Pataudi-Pz,28.33749999967923,76.75416666974581,Manual,,,1996,POINT (76.75416666974581 28.33749999967923)
HARYANA,PALWAL,Saundabad,27.916666669817772,77.31666667047264,Manual,,,1996,POINT (77.31666667047264 27.91666666981777)
HARYANA,SIRSA,Darba Kalan-Pz,29.39166666995008,75.08888889024738,Manual,,,1996,POINT (75.08888889024738 29.39166666995008)
HARYANA,PANCHKULA,Raipur Rani-Pz,30.58333333004657,77.0166666700792,Manual,,,1996,POINT (77.0166666700792 30.58333333004657)
HARYANA,AMBALA,Naraingarh,30.470833329548842,77.12499999992808,Manual,12.22,12.5,1996,POINT (77.12499999992808 30.47083332954884)
HARYANA,MEWAT,Sehsaula,28.237777780266622,77.03388888981024,Manual,,,1996,POINT (77.03388888981024 28.23777778026662)
HARYANA,JIND,Ramrae,29.27916666999241,76.2374999996513,Manual,9.31,8.96,1996,POINT (76.23749999965131 29.27916666999241)
HARYANA,PANIPAT,Sanauli Khurd,29.38055556024263,77.1236111103102,Manual,,,1996,POINT (77.12361111031019 29.38055556024263)
HARYANA,FATEHABAD,Ratia S,29.687499999964114,75.57777777979891,Manual,,,1996,POINT (75.57777777979891 29.68749999996411)
HARYANA,MAHENDRAGARH,KANHAWAS,28.06250000002423,76.24999999992326,Manual,29.43,28.74,1996,POINT (76.24999999992326 28.06250000002423)
HARYANA,BHIWANI,Sodiwas,28.61666666992425,75.59999999997883,Manual,41.09,42.86,1996,POINT (75.59999999997883 28.61666666992425)
HARYANA,JIND,Sahanpur-Pz,29.454722219846012,76.7025000004763,Manual,,,1996,POINT (76.70250000047631 29.45472221984601)
HARYANA,KURUKSHETRA,Ban,29.991666669693746,77.07500000008444,Manual,,,1996,POINT (77.07500000008444 29.99166666969375)
HARYANA,KARNAL,Nisang1,29.849444439845534,76.70416667033915,Manual,,,1996,POINT (76.70416667033915 29.84944443984553)
HARYANA,SONIPAT,Kharkhauda,28.87916666962173,76.91250000011827,Manual,3.42,,1996,POINT (76.91250000011827 28.87916666962173)
HARYANA,KURUKSHETRA,Jogna Khera-Pz,29.986111109650746,76.79416667041302,Manual,,,1996,POINT (76.79416667041302 29.98611110965075)
HARYANA,PALWAL,Lalwa,28.137500000327325,77.40416666952055,Manual,5.3,4.14,1996,POINT (77.40416666952055 28.13750000032733)
HARYANA,GURGAON,Palri,28.43888889024403,76.73611110973408,Manual,,,1996,POINT (76.73611110973408 28.43888889024403)
HARYANA,ROHTAK,Jasia,29.011111109899726,76.64305556047042,Manual,4.5,6.4,1996,POINT (76.64305556047042 29.01111110989973)
HARYANA,REWARI,BOREWELL NEAR POSCO COMPANY SECTOR - 14 PHASE - II VILLAGE PATHUHERA HSIIDC IMT BAWAL,28.096660999751915,76.57935600019695,MANUAL,,,1996,POINT (76.57935600019695 28.09666099975191)
HARYANA,MAHENDRAGARH,Salarpur,28.149999999740213,76.21666667013808,Manual,,,1996,POINT (76.21666667013808 28.14999999974021)
HARYANA,GURGAON,Badsahapur Ew,28.379999999663802,77.04444443977438,Manual,,,1996,POINT (77.04444443977438 28.3799999996638)
HARYANA,JIND,Shahabpur,29.408333329555422,76.35416666975205,Manual,13.99,16.13,1996,POINT (76.35416666975205 29.40833332955542)
HARYANA,KAITHAL,Balbehra-Pz,29.847222219958013,76.66138888952628,Manual,,,1996,POINT (76.66138888952628 29.84722221995801)
HARYANA,KAITHAL,Balbahera pz,29.800000000447273,76.3799999998817,Manual,,,1996,POINT (76.3799999998817 29.80000000044727)
HARYANA,PANCHKULA,Bahoriyan-Dw,30.778888889973906,76.93805556051844,Manual,,,1996,POINT (76.93805556051844 30.77888888997391)
HARYANA,JIND,Safidon,29.400000000335304,76.65000000012377,Manual,6.02,,1996,POINT (76.65000000012377 29.4000000003353)
HARYANA,ROHTAK,Tiloli-DW,28.970277780286107,76.55138888949931,Manual,,,1996,POINT (76.55138888949931 28.97027778028611)
HARYANA,GURGAON,Jamalpur-Pz,28.370833329721656,76.83611110984761,Manual,,,1996,POINT (76.83611110984761 28.37083332972166)
HARYANA,HISAR,Barwala2,29.370833330109587,75.9208333304703,Manual,,,1996,POINT (75.9208333304703 29.37083333010959)
HARYANA,KARNAL,Kalsi,29.86666667043548,76.9583333297809,Manual,,,1996,POINT (76.9583333297809 29.86666667043548)
HARYANA,PANCHKULA,Jaspur-DW,30.4833333303173,76.95000000004634,Manual,,,1996,POINT (76.95000000004634 30.4833333303173)
HARYANA,KARNAL,Garhi Khajur M,29.53333333033136,77.05694443967954,Manual,10.1,,1996,POINT (77.05694443967954 29.53333333033136)
HARYANA,,GIDC HALOL PANCHMAHAL,22.541931999690505,73.45922799967595,MANUAL,,,1996,POINT (73.45922799967595 22.5419319996905)
HARYANA,KARNAL,Saunkra S,29.78749999998116,76.88750000050716,Manual,,,1996,POINT (76.88750000050716 29.78749999998116)
HARYANA,KAITHAL,Jateri,29.74166667000225,76.54999999968916,Manual,8.78,10.04,1996,POINT (76.54999999968916 29.74166667000225)
HARYANA,PANIPAT,Nariana-PZ,29.245833330211426,76.97499999962952,Manual,,,1996,POINT (76.97499999962952 29.24583333021143)
HARYANA,JHAJJAR,Nahar,28.47361111010993,76.41666667037956,Manual,17.5,6.59,1996,POINT (76.41666667037956 28.47361111010993)
HARYANA,SONIPAT,Barota,29.12499999969769,76.72499999957266,Manual,3.3,,1996,POINT (76.72499999957266 29.12499999969769)
HARYANA,AMBALA,Salehpur-DW,30.254444440217465,77.08888888982446,Manual,,,1996,POINT (77.08888888982446 30.25444444021747)
HARYANA,JIND,Bibipur-OW,29.24694443971323,76.27583332997207,Manual,,,1996,POINT (76.27583332997207 29.24694443971323)
HARYANA,KAITHAL,Bhogal,30.050000000011988,76.34166666964643,Manual,,,1996,POINT (76.34166666964643 30.05000000001199)
HARYANA,KURUKSHETRA,Khanpur Jattan D-Pz.,30.12694444013511,76.84083332959051,Manual,,,1996,POINT (76.84083332959051 30.12694444013511)
HARYANA,SIRSA,Bhuratwala-Pz,29.425000000164577,74.77083332957217,Manual,,,1996,POINT (74.77083332957217 29.42500000016458)
HARYANA,KARNAL,Kirmach-St-Pz,29.90333332966007,76.78750000014239,Manual,,,1996,POINT (76.78750000014239 29.90333332966007)
HARYANA,KARNAL,Islam Nagar-Pz-S,29.874999999711772,77.11249999958358,Manual,,,1996,POINT (77.11249999958358 29.87499999971177)
HARYANA,KURUKSHETRA,Budha-PZ,29.981666669652853,77.07444444044816,Manual,,,1996,POINT (77.07444444044816 29.98166666965285)
HARYANA,GURGAON,"Sec-18,gurgaon",28.474999999554118,77.02083332999686,Manual,,,1996,POINT (77.02083332999686 28.47499999955412)
HARYANA,KARNAL,Saunkra,29.78749999998116,76.88750000050716,Manual,10.61,,1996,POINT (76.88750000050716 29.78749999998116)
HARYANA,SONIPAT,Anandpur-Jarot-DW,28.91638888960429,76.93694443988144,Manual,,,1996,POINT (76.93694443988144 28.91638888960429)
HARYANA,KARNAL,Manjura-Pz,29.691111109942497,76.84222222039841,Manual,,,1996,POINT (76.84222222039841 29.6911111099425)
HARYANA,KURUKSHETRA,Mirzapur-PZ,29.954444439697603,76.79361110974816,Manual,,,1996,POINT (76.79361110974816 29.9544444396976)
HARYANA,AMBALA,Jansui-DW,30.207500000128828,76.6852777799815,Manual,,,1996,POINT (76.6852777799815 30.20750000012883)
HARYANA,JHAJJAR,Goria-DW,28.452777780083213,76.38694444014752,Manual,,,1996,POINT (76.38694444014752 28.45277778008321)
HARYANA,SONIPAT,Datauli,29.15972221990225,77.07916667044681,Manual,,,1996,POINT (77.07916667044681 29.15972221990225)
HARYANA,JIND,Narwana,29.59999999972087,76.12500000004381,Manual,3.0,3.15,1996,POINT (76.12500000004381 29.59999999972087)
HARYANA,YAMUNANAGAR,Mustafabad,30.195833329906787,77.1458333299502,Manual,6.09,,1996,POINT (77.14583332995019 30.19583332990679)
HARYANA,ROHTAK,Muradpur Tekna-DW,28.87333333028592,76.46166667031991,Manual,,,1996,POINT (76.46166667031991 28.87333333028592)
HARYANA,FARIDABAD,"Sec-3,ballabgarh",28.347222219596468,77.33499999971791,Manual,,,1996,POINT (77.33499999971791 28.34722221959647)
HARYANA,MAHENDRAGARH,Lujota,27.87500000044157,76.11666666954505,Manual,,,1996,POINT (76.11666666954505 27.87500000044157)
HARYANA,KAITHAL,Solu Majra-Pz,29.865277780370466,76.57916667025751,Manual,,,1996,POINT (76.57916667025751 29.86527778037047)
HARYANA,HISAR,Rajli Cross,29.288888890317523,75.90694443955073,Manual,4.2,3.73,1996,POINT (75.90694443955073 29.28888889031752)
HARYANA,KARNAL,Makhala S,29.933333330098826,77.15416666989728,Manual,,,1996,POINT (77.15416666989728 29.93333333009883)
HARYANA,KARNAL,Andhera-PZ,29.63722221966969,77.0938888900769,Manual,,,1996,POINT (77.0938888900769 29.63722221966969)
HARYANA,YAMUNANAGAR,Sadhaura M,30.383333329549004,77.22499999967819,Manual,11.08,11.21,1996,POINT (77.22499999967819 30.383333329549)
HARYANA,JIND,Paju Khurd-Ew,29.442222219905204,76.62666667004075,Manual,,,1996,POINT (76.62666667004075 29.4422222199052)
HARYANA,MEWAT,Luhingakalan,27.831944440150128,77.13749999979026,Manual,,1.07,1996,POINT (77.13749999979026 27.83194444015013)
HARYANA,KAITHAL,Khanpur Ew S,29.89277777980147,76.35722221951818,Manual,,,1996,POINT (76.35722221951818 29.89277777980147)
HARYANA,SONIPAT,Mohana Pzm,29.03749999971489,76.87361111041709,Manual,,,1996,POINT (76.87361111041709 29.03749999971489)
HARYANA,PANIPAT,Babail VS-Pz,29.429166669672032,77.04999999963894,Manual,,,1996,POINT (77.04999999963894 29.42916666967203)
HARYANA,AMBALA,Barara S,30.212500000051108,77.0333333303658,Manual,,,1996,POINT (77.03333333036581 30.21250000005111)
HARYANA,REWARI,Mandola-Pz,28.22777777961735,76.3555555598693,Manual,,,1996,POINT (76.3555555598693 28.22777777961735)
HARYANA,JHAJJAR,Dulhera,28.649999999791568,76.78333332998434,Manual,4.24,4.19,1996,POINT (76.78333332998434 28.64999999979157)
HARYANA,FATEHABAD,Lahrian,29.62222222043488,75.71805555950675,Manual,,,1996,POINT (75.71805555950675 29.62222222043488)
HARYANA,FATEHABAD,Khara Kheri-DW,29.45416667011777,75.58611111035367,Manual,,,1996,POINT (75.58611111035367 29.45416667011777)
HARYANA,KARNAL,Gondar-PZ,29.647222219562828,76.7524999995524,Manual,,,1996,POINT (76.7524999995524 29.64722221956283)
HARYANA,JHAJJAR,Kiloi,28.5499999997551,76.73333333013295,Manual,5.53,5.92,1996,POINT (76.73333333013295 28.5499999997551)
HARYANA,SIRSA,Kash Ram Dhab,29.42222222033473,74.61249999992697,Manual,7.0,6.5,1996,POINT (74.61249999992697 29.42222222033473)
HARYANA,JIND,Safidon 1(s),29.404166669558396,76.65555556000871,Manual,6.05,6.95,1996,POINT (76.65555556000871 29.4041666695584)
HARYANA,KURUKSHETRA,Dabkhera-Pz,30.00055555993893,76.75361110979516,Manual,,,1996,POINT (76.75361110979516 30.00055555993893)
HARYANA,BHIWANI,Sui,28.85694444026657,76.06666667033205,Manual,7.9,7.6,1996,POINT (76.06666667033205 28.85694444026657)
HARYANA,BHIWANI,Chirya,28.458333330231127,76.25833333017165,Manual,14.19,12.62,1996,POINT (76.25833333017165 28.45833333023113)
HARYANA,MEWAT,Nuh,28.104166669732948,77.00416666951692,Manual,2.8,0.48,1996,POINT (77.00416666951692 28.10416666973295)
HARYANA,SONIPAT,Rathdhana-Pz,28.908333329728364,77.18055556043569,Manual,,,1996,POINT (77.18055556043569 28.90833332972836)
HARYANA,ROHTAK,Kiloi-DW,28.944166670386306,76.71527778020794,Manual,,,1996,POINT (76.71527778020794 28.94416667038631)
HARYANA,REWARI,Rohrai-DW,28.31999999995145,76.51666666956302,Manual,,,1996,POINT (76.51666666956302 28.31999999995145)
HARYANA,SIRSA,Hasu,29.898611109831773,74.934722219684,Manual,9.9,9.68,1996,POINT (74.93472221968401 29.89861110983177)
HARYANA,JIND,Budha Khera,29.386388890153352,76.51555555975919,Manual,,,1996,POINT (76.51555555975919 29.38638889015335)
HARYANA,KURUKSHETRA,Jalbera,30.070833330037946,76.64166667026551,Manual,,,1996,POINT (76.64166667026551 30.07083333003795)
HARYANA,AMBALA,Dukheri-DW,30.280555560030088,76.88083332989329,Manual,,,1996,POINT (76.88083332989329 30.28055556003009)
HARYANA,GURGAON,Fazilpur Badli-Pz,28.42499999971745,76.8583333295393,Manual,,,1996,POINT (76.85833332953931 28.42499999971745)
HARYANA,JHAJJAR,Lakeria- DW,28.734722220414238,76.94111111019096,Manual,,,1996,POINT (76.94111111019096 28.73472222041424)
HARYANA,GURGAON,Kharkhri,28.35416667033492,76.86666667023856,Manual,24.19,23.99,1996,POINT (76.86666667023856 28.35416667033492)
HARYANA,KARNAL,Sugar Cane Breeding Farm,29.739444439895355,76.97305556024982,Manual,,,1996,POINT (76.97305556024982 29.73944443989535)
HARYANA,PANCHKULA,Rampur-DW,30.603055560375203,77.04777777948424,Manual,,,1996,POINT (77.04777777948424 30.6030555603752)
HARYANA,KARNAL,Nisang,29.68749999975357,76.75000000037643,Manual,5.7,6.53,1996,POINT (76.75000000037643 29.68749999975357)
HARYANA,SIRSA,Karamsana,29.340277779874164,74.62999999978874,Manual,,11.5,1996,POINT (74.62999999978874 29.34027777987416)
HARYANA,FARIDABAD,Sikri,28.27916666974577,77.28333332959713,Manual,,,1996,POINT (77.28333332959713 28.27916666974577)
HARYANA,REWARI,Shadipur-DW,28.36999999985324,76.55333333045384,Manual,,,1996,POINT (76.55333333045384 28.36999999985324)
HARYANA,KURUKSHETRA,Shahbad 1(d),30.166666669580675,76.86666666992501,Manual,,,1996,POINT (76.86666666992501 30.16666666958067)
HARYANA,KARNAL,Kohnd S,29.508333330448398,76.98333332992954,Manual,12.59,,1996,POINT (76.98333332992954 29.5083333304484)
HARYANA,GURGAON,Machana Pz,28.408333330152324,76.75000000021966,Manual,,,1996,POINT (76.75000000021966 28.40833333015232)
HARYANA,YAMUNANAGAR,Kotla D,30.450000000130125,77.28333333040338,Manual,,,1996,POINT (77.28333333040338 30.45000000013012)
HARYANA,REWARI,Rewari,28.195833330088323,76.60833333007884,Manual,,10.25,1996,POINT (76.60833333007884 28.19583333008832)
HARYANA,MEWAT,Indri,28.18611111000997,77.09861111006795,Manual,,0.57,1996,POINT (77.09861111006795 28.18611111000997)
HARYANA,BHIWANI,Sangwan,28.872222219910785,75.9583333304045,Manual,,,1996,POINT (75.9583333304045 28.87222221991079)
HARYANA,SONIPAT,Ahmadpur Majra-DW,29.21777778007037,76.69194443976477,Manual,,,1996,POINT (76.69194443976477 29.21777778007037)
HARYANA,GURGAON,Sohna,28.233333329573256,77.07083332995656,Manual,,,1996,POINT (77.07083332995656 28.23333332957326)
HARYANA,KAITHAL,Kanhari-Pz,29.686111110450447,75.91666667014597,Manual,,,1996,POINT (75.91666667014597 29.68611111045045)
HARYANA,REWARI,Palhawas-DW,28.357777779979674,76.62111110989099,Manual,,,1996,POINT (76.62111110989099 28.35777777997967)
HARYANA,AMBALA,Nasirpur-Pz,30.35000000031005,76.76666666989212,Manual,,,1996,POINT (76.76666666989212 30.35000000031005)
HARYANA,SIRSA,Mangala-Pz,29.47777777962147,74.95555555985291,Manual,,,1996,POINT (74.95555555985291 29.47777777962147)
HARYANA,YAMUNANAGAR,Tehi-Pz,30.2833333301643,77.2833333298118,Manual,,,1996,POINT (77.2833333298118 30.2833333301643)
HARYANA,AMBALA,Barara-Pz,30.21666666989091,77.04999999975473,Manual,,,1996,POINT (77.04999999975473 30.21666666989091)
HARYANA,GURGAON,Haila Mandi,28.313055559661475,76.77083332966427,Manual,,,1996,POINT (76.77083332966427 28.31305555966147)
HARYANA,FATEHABAD,Nikuwana-Pz,29.737499999704493,75.6333333304219,Manual,,,1996,POINT (75.63333333042191 29.73749999970449)
HARYANA,BHIWANI,Atela-PZ,28.57833333002801,76.10583332997474,Manual,,,1996,POINT (76.10583332997474 28.57833333002801)
HARYANA,YAMUNANAGAR,Nagal Patti-DW,30.31666667002276,77.51666666973723,Manual,,,1996,POINT (77.51666666973723 30.31666667002276)
HARYANA,PANIPAT,Sikandarpur S,29.419444440035733,76.93611110957406,Manual,,,1996,POINT (76.93611110957406 29.41944444003573)
HARYANA,HISAR,Alipur,29.13333332993825,75.88333333044858,Manual,3.87,3.57,1996,POINT (75.88333333044858 29.13333332993825)
HARYANA,PANIPAT,Shimla Maulan M,29.456111109968447,76.98333332984947,Manual,10.22,10.6,1996,POINT (76.98333332984947 29.45611110996845)
HARYANA,KARNAL,Gangateri-Pz,29.47777777983273,76.5038888899945,Manual,,,1996,POINT (76.5038888899945 29.47777777983273)
HARYANA,KARNAL,Kutail M,29.586111109583143,77.02222221948945,Manual,16.71,,1996,POINT (77.02222221948945 29.58611110958314)
HARYANA,KARNAL,Newal 2(d),29.733333329637915,77.04999999980882,Manual,,,1996,POINT (77.04999999980882 29.73333332963792)
HARYANA,JIND,Khatkaran,29.40555556023641,76.24583332968689,Manual,10.13,9.88,1996,POINT (76.24583332968689 29.40555556023641)
HARYANA,AMBALA,Patvi,30.434444440052715,76.95499999989748,Manual,,,1996,POINT (76.95499999989748 30.43444444005272)
HARYANA,SONIPAT,Lath,29.07499999980404,76.77916666958154,Manual,2.87,0.67,1996,POINT (76.77916666958154 29.07499999980404)
HARYANA,JHAJJAR,Beri,28.711111109824124,76.58194443952729,Manual,2.88,2.63,1996,POINT (76.58194443952729 28.71111110982412)
HARYANA,KURUKSHETRA,Mathana,29.97499999960155,76.9583333302592,Manual,,,1996,POINT (76.95833333025919 29.97499999960155)
HARYANA,PANIPAT,Bhodwalmajri,29.200000000180715,77.01666666983888,Manual,,,1996,POINT (77.01666666983888 29.20000000018072)
HARYANA,KARNAL,Padhana-DW,29.499166670062532,76.71305555947895,Manual,,,1996,POINT (76.71305555947895 29.49916667006253)
HARYANA,AMBALA,Kesri,30.23333333001151,76.90555556035673,Manual,,,1996,POINT (76.90555556035673 30.23333333001151)
HARYANA,KURUKSHETRA,Khan Pur Jattan  S Pz.,30.125000000284444,76.86277778002166,Manual,,,1996,POINT (76.86277778002166 30.12500000028444)
HARYANA,MAHENDRAGARH,Jhanjara Was,28.238333330130047,76.11805555950988,Manual,,,1996,POINT (76.11805555950988 28.23833333013005)
HARYANA,PALWAL,Hathin,28.045833330376514,77.24166666996238,Manual,,,1996,POINT (77.24166666996238 28.04583333037651)
HARYANA,PANCHKULA,Thapli-Dw,30.739166669677576,76.99861111015598,Manual,,,1996,POINT (76.99861111015598 30.73916666967758)
HARYANA,JIND,Ganda Khera-DW,29.513333330309905,76.24333332969819,Manual,,,1996,POINT (76.24333332969819 29.51333333030991)
HARYANA,FATEHABAD,Nagpur,29.6583333304396,75.42083333015223,Manual,10.64,10.3,1996,POINT (75.42083333015223 29.6583333304396)
HARYANA,KURUKSHETRA,Adhoya-Pz,30.068055559753944,76.4888888903999,Manual,,,1996,POINT (76.48888889039991 30.06805555975394)
HARYANA,JIND,Rajana Kalan,29.38194443995903,76.51805556050779,Manual,,1.84,1996,POINT (76.51805556050779 29.38194443995903)
HARYANA,JIND,Julana Pz,29.125000000322622,76.4083333299696,Manual,,,1996,POINT (76.40833332996959 29.12500000032262)
HARYANA,PANIPAT,Baupur,29.32000000015457,76.81333332972814,Manual,,,1996,POINT (76.81333332972814 29.32000000015457)
HARYANA,HISAR,Chaudhriwali,29.150000000233927,75.39722222028756,Manual,14.82,14.7,1996,POINT (75.39722222028756 29.15000000023393)
HARYANA,AMBALA,Sohana-DW,30.25388888989191,77.02638889038205,Manual,,,1996,POINT (77.02638889038205 30.25388888989191)
HARYANA,BHIWANI,Paju,28.569444440094127,75.67666667051357,Manual,,,1996,POINT (75.67666667051357 28.56944444009413)
HARYANA,PANCHKULA,Parwala,30.641666669827085,77.00833333012496,Manual,19.38,17.99,1996,POINT (77.00833333012496 30.64166666982709)
HARYANA,HISAR,Bithmara-DW,29.458333330193092,75.93055556005206,Manual,,,1996,POINT (75.93055556005206 29.45833333019309)
HARYANA,KARNAL,Newal(deep),29.733333329637915,77.04999999980882,Manual,,,1996,POINT (77.04999999980882 29.73333332963792)
HARYANA,KAITHAL,Dhandh-Pz,29.87999999999786,76.61527778049755,Manual,,,1996,POINT (76.61527778049755 29.87999999999786)
HARYANA,SIRSA,Kariwala1,29.558333329634408,74.64166667045731,Manual,,,1996,POINT (74.64166667045731 29.55833332963441)
HARYANA,KARNAL,Kurlan-Pz,29.501111110243663,76.50416667048962,Manual,,,1996,POINT (76.50416667048962 29.50111111024366)
HARYANA,BHIWANI,Kaliawas- DW,28.60388889044582,76.37222222023266,Manual,,,1996,POINT (76.37222222023266 28.60388889044582)
HARYANA,SONIPAT,Kundli,28.870833330218293,77.11666667044976,Manual,,,1996,POINT (77.11666667044976 28.87083333021829)
HARYANA,GURGAON,Narsingpur,28.41666666957743,76.99722222040045,Manual,,,1996,POINT (76.99722222040045 28.41666666957743)
HARYANA,YAMUNANAGAR,Sadhaura,30.400000000405356,77.22083332997238,Manual,,,1996,POINT (77.22083332997238 30.40000000040536)
HARYANA,YAMUNANAGAR,Rasulpur,30.447222220243283,77.21666667033402,Manual,,,1996,POINT (77.21666667033402 30.44722222024328)
HARYANA,JHAJJAR,Jharli,28.50277778024073,76.38055555983264,Manual,,18.24,1996,POINT (76.38055555983264 28.50277778024073)
HARYANA,MAHENDRAGARH,Mahendragarh,28.266666669542605,76.14999999988443,Manual,,,1996,POINT (76.14999999988443 28.26666666954261)
HARYANA,SONIPAT,Rai(Bahalgarh),28.941666670115556,77.09583332956943,Manual,,,1996,POINT (77.09583332956943 28.94166667011556)
HARYANA,SIRSA,Abholi,29.505555560018372,74.87638889026705,Manual,11.19,12.01,1996,POINT (74.87638889026705 29.50555556001837)
HARYANA,SIRSA,Talwara Khurd,29.49666666977384,74.63611111000505,Manual,5.96,5.76,1996,POINT (74.63611111000505 29.49666666977384)
HARYANA,ROHTAK,Nidhana,29.012500000228176,76.38750000050618,Manual,1.5,2.43,1996,POINT (76.38750000050618 29.01250000022818)
HARYANA,SIRSA,Thiraj,29.72777778013633,75.03888889013122,Manual,2.35,2.0,1996,POINT (75.03888889013122 29.72777778013633)
HARYANA,SONIPAT,Machhri,29.054166669978613,76.85833332972287,Manual,2.75,0.7,1996,POINT (76.85833332972287 29.05416666997861)
HARYANA,MAHENDRAGARH,Faizabad,28.084722219616218,76.11527777999319,Manual,23.09,23.3,1996,POINT (76.11527777999319 28.08472221961622)
HARYANA,AMBALA,Mohra S,30.27083332962516,76.85833332967974,Manual,,,1996,POINT (76.85833332967974 30.27083332962516)
HARYANA,MAHENDRAGARH,Basirpur,28.00555556000064,76.04583333036014,Manual,23.08,17.34,1996,POINT (76.04583333036014 28.00555556000064)
HARYANA,SIRSA,Chotala,29.77500000039927,74.51666667048633,Manual,13.68,13.16,1996,POINT (74.51666667048633 29.77500000039927)
HARYANA,HISAR,Sohu,29.498611110292483,75.8333333302088,Manual,,,1996,POINT (75.8333333302088 29.49861111029248)
HARYANA,JHAJJAR,Subnah,28.469444439922967,76.5722222197976,Manual,,0.42,1996,POINT (76.5722222197976 28.46944443992297)
HARYANA,SIRSA,Alikan,29.674999999744774,75.15000000021568,Manual,2.6,2.4,1996,POINT (75.15000000021568 29.67499999974477)
HARYANA,KARNAL,Amupur Chakda,29.77388889021248,76.74138889014007,Manual,,,1996,POINT (76.74138889014007 29.77388889021248)
HARYANA,KARNAL,Nisang-S,29.68749999975357,76.75000000037643,Manual,,,1996,POINT (76.75000000037643 29.68749999975357)
HARYANA,PANCHKULA,Devnagar(Panchkula),30.696666670328803,76.87333332954589,Manual,8.96,8.16,1996,POINT (76.87333332954589 30.6966666703288)
HARYANA,ROHTAK,Sampla1,28.774999999712662,76.7749999997796,Manual,4.25,3.65,1996,POINT (76.7749999997796 28.77499999971266)
HARYANA,FATEHABAD,Munshiwali-Pz,29.658333330044442,75.59722222009192,Manual,,,1996,POINT (75.59722222009192 29.65833333004444)
HARYANA,YAMUNANAGAR,Bilaspur1,30.300000000092158,77.3000000004733,Manual,7.39,7.73,1996,POINT (77.3000000004733 30.30000000009216)
HARYANA,GURGAON,Bilaspur2,28.287500000454177,76.86666666999021,Manual,,,1996,POINT (76.86666666999021 28.28750000045418)
HARYANA,SIRSA,Nuhian Wali,29.75416667029717,74.84999999948322,Manual,,,1996,POINT (74.84999999948322 29.75416667029717)
HARYANA,KAITHAL,Ram Garh-DW,29.65694443988676,76.29027778050154,Manual,,,1996,POINT (76.29027778050154 29.65694443988676)
HARYANA,PANIPAT,Patti Kalyana S,29.209722219814747,77.02777777967859,Manual,,,1996,POINT (77.02777777967859 29.20972221981475)
HARYANA,KAITHAL,Sarsa-PZ,29.931388889769217,76.66527778020986,Manual,,,1996,POINT (76.66527778020986 29.93138888976922)
HARYANA,KARNAL,Balhera-s,29.474999999584053,77.0874999999617,Manual,,,1996,POINT (77.08749999996169 29.47499999958405)
HARYANA,KARNAL,Mound S,29.5180555597337,76.54722221959085,Manual,,,1996,POINT (76.54722221959085 29.5180555597337)
HARYANA,KARNAL,Makhala,29.933333330098826,77.15416666989728,Manual,,,1996,POINT (77.15416666989728 29.93333333009883)
HARYANA,SONIPAT,Sheikhpura,29.13333332962455,76.9625000005087,Manual,8.3,7.39,1996,POINT (76.9625000005087 29.13333332962455)
HARYANA,GURGAON,Mauzmabad,28.30416666970845,76.69166667008231,Manual,,,1996,POINT (76.69166667008231 28.30416666970845)
HARYANA,HISAR,Banbhauri-Pz,29.39999999994095,76.04999999985662,Manual,,,1996,POINT (76.04999999985662 29.39999999994095)
HARYANA,KURUKSHETRA,Murtzapur-Pz,29.988888889566745,76.75138888983706,Manual,,,1996,POINT (76.75138888983706 29.98888888956674)
HARYANA,AMBALA,Shahpur-DW,30.29999999956369,77.08333332977256,Manual,,,1996,POINT (77.08333332977256 30.29999999956369)
HARYANA,KARNAL,Faridpur-Pz,29.46111111032587,77.03750000046865,Manual,,,1996,POINT (77.03750000046865 29.46111111032587)
HARYANA,JIND,Pokerikheri-Pz,29.25777777969336,76.23388888988056,Manual,,,1996,POINT (76.23388888988056 29.25777777969336)
HARYANA,SIRSA,Kariwala,29.558333329634408,74.64166667045731,Manual,14.34,14.23,1996,POINT (74.64166667045731 29.55833332963441)
HARYANA,KURUKSHETRA,Ajrana Kalan M,30.095833329600463,76.77083333032344,Manual,,,1996,POINT (76.77083333032344 30.09583332960046)
HARYANA,KARNAL,Harsinghpura,29.471666669628014,77.0094444404852,Manual,,,1996,POINT (77.0094444404852 29.47166666962801)
HARYANA,REWARI,Ratanthal-DW,28.388888890340663,76.59444444007988,Manual,,,1996,POINT (76.59444444007988 28.38888889034066)
HARYANA,HISAR,Adampur S,29.270833329575645,75.47916667027305,Manual,2.9,2.92,1996,POINT (75.47916667027305 29.27083332957564)
HARYANA,KURUKSHETRA,Kaulapur(deep),30.034722220322518,76.90416666982779,Manual,,,1996,POINT (76.90416666982779 30.03472222032252)
HARYANA,BHIWANI,Imlota,28.608333329905854,76.45277777957953,Manual,1.34,1.15,1996,POINT (76.45277777957953 28.60833332990585)
HARYANA,KURUKSHETRA,Kalsani-PZ,30.1550000003101,76.81833333004043,Manual,,,1996,POINT (76.81833333004043 30.1550000003101)
HARYANA,HISAR,Dhamundicross,29.07500000037571,76.04166667006153,Manual,4.1,3.8,1996,POINT (76.04166667006153 29.07500000037571)
HARYANA,SONIPAT,Sisnah,28.90000000015646,76.85833333011024,Manual,4.86,1.56,1996,POINT (76.85833333011024 28.90000000015646)
HARYANA,GURGAON,Kasan,28.356944439683318,76.90833333034273,Manual,,,1996,POINT (76.90833333034273 28.35694443968332)
HARYANA,GURGAON,Pataudi,28.327777780256486,76.77499999961498,Manual,,,1996,POINT (76.77499999961498 28.32777778025649)
HARYANA,KAITHAL,Titiana 1(s),30.100000000330297,76.33333333001515,Manual,,,1996,POINT (76.33333333001515 30.1000000003303)
HARYANA,SIRSA,Khuiyan,29.85833333023983,74.76944443963778,Manual,13.6,13.5,1996,POINT (74.76944443963778 29.85833333023983)
HARYANA,FATEHABAD,Ratia -Pz,29.687499999964114,75.57777777979891,Manual,,,1996,POINT (75.57777777979891 29.68749999996411)
HARYANA,KARNAL,Samora,29.943055559577807,77.04166667046212,Manual,4.32,3.48,1996,POINT (77.04166667046212 29.94305555957781)
HARYANA,KARNAL,Phurlak M,29.550000000098578,76.93333332948201,Manual,11.05,,1996,POINT (76.93333332948201 29.55000000009858)
HARYANA,ROHTAK,Rohtak,28.88333332969577,76.58333333036157,Manual,2.64,1.52,1996,POINT (76.58333333036157 28.88333332969577)
HARYANA,KURUKSHETRA,Pehowa 2(m),29.983333330392465,76.58055555963423,Manual,,,1996,POINT (76.58055555963423 29.98333333039247)
HARYANA,SONIPAT,Kheora1,28.96666667026297,77.12083333018667,Manual,,,1996,POINT (77.12083333018667 28.96666667026297)
HARYANA,KURUKSHETRA,Barhan-PZ,29.99388888994336,77.01888888975787,Manual,,,1996,POINT (77.01888888975787 29.99388888994336)
HARYANA,BHIWANI,Haluwas,28.733333329570343,76.16666667036917,Manual,2.79,1.38,1996,POINT (76.16666667036917 28.73333332957034)
HARYANA,YAMUNANAGAR,Ramgarh-DW,30.383333329605204,77.34999999967573,Manual,,,1996,POINT (77.34999999967573 30.3833333296052)
HARYANA,FATEHABAD,Fatehabad S,29.50000000004657,75.42083333038906,Manual,,25.28,1996,POINT (75.42083333038906 29.50000000004657)
HARYANA,REWARI,Jatusana,28.330555560108877,76.54166667003041,Manual,17.07,16.72,1996,POINT (76.54166667003041 28.33055556010888)
HARYANA,BHIWANI,Bawani Khera.-PZ,28.945000000365358,76.03333332972629,Manual,,,1996,POINT (76.03333332972629 28.94500000036536)
HARYANA,JIND,Bhana Barahman-DW,29.816666669841545,76.20833333009594,Manual,,,1996,POINT (76.20833333009594 29.81666666984155)
HARYANA,KAITHAL,Peoda_Pz,29.747222220150558,76.41666667045091,Manual,,,1996,POINT (76.41666667045091 29.74722222015056)
HARYANA,MEWAT,Raoli,27.6999999998538,76.93333332981511,Manual,,0.86,1996,POINT (76.93333332981511 27.6999999998538)
HARYANA,KARNAL,Kutial,29.583333329685804,77.01250000009793,Manual,,,1996,POINT (77.01250000009793 29.5833333296858)
HARYANA,SONIPAT,Kami- PZ,29.0291666703788,77.01666666995813,Manual,,,1996,POINT (77.01666666995813 29.0291666703788)
HARYANA,PALWAL,Chandhat,28.124999999934907,77.45000000029444,Manual,,,1996,POINT (77.45000000029444 28.12499999993491)
HARYANA,KAITHAL,Chika-Pz,30.04861111035425,76.3438888900446,Manual,,,1996,POINT (76.3438888900446 30.04861111035425)
HARYANA,YAMUNANAGAR,Rasulpur1,30.447222220243283,77.21666667033402,Manual,,,1996,POINT (77.21666667033402 30.44722222024328)
HARYANA,REWARI,Kumbhawas-DW,28.248888890226844,76.66111111049459,Manual,,,1996,POINT (76.66111111049459 28.24888889022684)
HARYANA,AMBALA,Tharwa-DW,30.279999999565835,76.78638888973515,Manual,,,1996,POINT (76.78638888973515 30.27999999956583)
HARYANA,PANIPAT,Bilaspur 2(m),29.233333330085763,77.13333333043448,Manual,,,1996,POINT (77.13333333043448 29.23333333008576)
HARYANA,REWARI,Gumina,28.179166669611675,76.49166666970174,Manual,19.22,19.67,1996,POINT (76.49166666970174 28.17916666961167)
HARYANA,KURUKSHETRA,Pehowa,29.979166670182988,76.58333333000523,Manual,,,1996,POINT (76.58333333000523 29.97916667018299)
HARYANA,KURUKSHETRA,Bakali-PZ,30.015277780344075,77.06500000031218,Manual,,,1996,POINT (77.06500000031218 30.01527778034407)
HARYANA,ROHTAK,Bhalaut,28.905555560262442,76.71666667034495,Manual,3.45,1.48,1996,POINT (76.71666667034495 28.90555556026244)
HARYANA,JHAJJAR,Beri1,28.71666666957356,76.58333332957609,Manual,3.8,2.51,1996,POINT (76.58333332957609 28.71666666957356)
HARYANA,KARNAL,Munak,29.51805555982992,76.85138889024645,Manual,3.5,,1996,POINT (76.85138889024645 29.51805555982992)
HARYANA,MEWAT,Akbarpur,28.145833329912573,77.14166666984669,Manual,1.48,0.39,1996,POINT (77.14166666984669 28.14583332991257)
HARYANA,PANIPAT,Tajpur(shallow),29.302222219735164,77.07499999964034,Manual,,,1996,POINT (77.07499999964034 29.30222221973516)
HARYANA,KURUKSHETRA,Lakhmari-PZ,30.144444439731306,77.02055556004207,Manual,,,1996,POINT (77.02055556004207 30.14444443973131)
HARYANA,KARNAL,Phurlak S,29.550000000098578,76.93333332948201,Manual,,,1996,POINT (76.93333332948201 29.55000000009858)
HARYANA,AMBALA,Saha M,30.30833332993041,76.97083333040631,Manual,29.78,36.9,1996,POINT (76.97083333040631 30.30833332993041)
HARYANA,KAITHAL,Kalayat,29.67916666998753,76.25277778018112,Manual,3.25,2.47,1996,POINT (76.25277778018112 29.67916666998753)
HARYANA,SONIPAT,Bhainswal,29.033333330066647,76.79166666992113,Manual,3.92,2.06,1996,POINT (76.79166666992113 29.03333333006665)
HARYANA,KURUKSHETRA,Ismailpur-PZ,30.131944439866754,76.65416667012053,Manual,,,1996,POINT (76.65416667012053 30.13194443986675)
HARYANA,MAHENDRAGARH,Satnali,28.375000000353808,75.96250000047458,Manual,,,1996,POINT (75.96250000047458 28.37500000035381)
HARYANA,SIRSA,Sirsa2,29.52916667000927,75.03750000017493,Manual,,,1996,POINT (75.03750000017493 29.52916667000927)
HARYANA,BHIWANI,Lohani,28.70000000042428,76.04583333022468,Manual,9.6,9.35,1996,POINT (76.04583333022468 28.70000000042428)
HARYANA,SONIPAT,Rai1,28.941666670115556,77.09583332956943,Manual,,,1996,POINT (77.09583332956943 28.94166667011556)
HARYANA,PALWAL,Utawar,27.984722219589482,77.1888888895387,Manual,,,1996,POINT (77.1888888895387 27.98472221958948)
HARYANA,HISAR,Hissar,29.154166670257048,75.71666666987714,Manual,6.71,6.56,1996,POINT (75.71666666987714 29.15416667025705)
HARYANA,KAITHAL,Rasulpur Ghamri-Pz,29.914166670243244,76.26055556012066,Manual,,,1996,POINT (76.26055556012066 29.91416667024324)
HARYANA,SONIPAT,Purkhas-Pz,29.065277780281857,76.83194443956027,Manual,,,1996,POINT (76.83194443956027 29.06527778028186)
HARYANA,PANIPAT,Sanauli Khurd-Pz,29.381944440064977,77.09111110962672,Manual,,,1996,POINT (77.09111110962672 29.38194444006498)
HARYANA,JIND,Narwana S-Pz,29.594444439685198,76.11666666993669,Manual,,,1996,POINT (76.11666666993669 29.5944444396852)
HARYANA,SIRSA,Sherpura,29.454166669927265,75.2041666704677,Manual,14.3,13.89,1996,POINT (75.2041666704677 29.45416666992726)
HARYANA,MAHENDRAGARH,Atali-DW,28.168888889630793,76.1944444402602,Manual,,,1996,POINT (76.1944444402602 28.16888888963079)
HARYANA,ROHTAK,Assan-DW,28.89666667040877,76.76111110981394,Manual,,,1996,POINT (76.76111110981394 28.89666667040877)
HARYANA,HISAR,Mehanda-DW,29.054166670208,76.05611111029934,Manual,,,1996,POINT (76.05611111029934 29.054166670208)
HARYANA,MAHENDRAGARH,Kaninakhas1,28.337500000083818,76.30833333031491,Manual,,,1996,POINT (76.30833333031491 28.33750000008382)
HARYANA,GURGAON,Daultabad-Pz,28.499444440076605,76.99305555983726,Manual,,,1996,POINT (76.99305555983726 28.4994444400766)
HARYANA,GURGAON,Mouzabad,28.2966666696707,76.69027778042842,Manual,,,1996,POINT (76.69027778042842 28.2966666696707)
HARYANA,PANCHKULA,Kundi-DW,30.664722219584636,76.8516666702193,Manual,,,1996,POINT (76.8516666702193 30.66472221958464)
HARYANA,SONIPAT,Gohana-Pz,29.139444440104853,76.71527778025278,Manual,,,1996,POINT (76.71527778025278 29.13944444010485)
HARYANA,YAMUNANAGAR,Jhiwarheri M,30.12499999973312,77.08611111025485,Manual,,17.07,1996,POINT (77.08611111025485 30.12499999973312)
HARYANA,KURUKSHETRA,Thana (s),29.91999999988473,76.5013888901509,Manual,,,1996,POINT (76.50138889015091 29.91999999988473)
HARYANA,SONIPAT,Manauli-Pz,28.908333329728364,77.18055556043569,Manual,,,1996,POINT (77.18055556043569 28.90833332972836)
HARYANA,BHIWANI,Juikalan,28.63333332954523,75.60833332978163,Manual,20.49,20.32,1996,POINT (75.60833332978163 28.63333332954523)
HARYANA,JIND,Hasanpur-Pz,29.45000000029275,76.40000000015851,Manual,,,1996,POINT (76.40000000015851 29.45000000029275)
HARYANA,AMBALA,Nagal (D),30.248611110341397,76.71666667049129,Manual,15.45,,1996,POINT (76.71666667049129 30.2486111103414)
HARYANA,AMBALA,Kalumazra-DW,30.248611110075025,76.76249999954732,Manual,,,1996,POINT (76.76249999954732 30.24861111007503)
HARYANA,AMBALA,Ganeshpur,30.38333333010274,76.99722222017219,Manual,9.23,8.78,1996,POINT (76.99722222017219 30.38333333010274)
HARYANA,SIRSA,Farwain,29.613888889764063,75.10833332949719,Manual,,3.65,1996,POINT (75.10833332949719 29.61388888976406)
HARYANA,SONIPAT,BOREWELL IN THE PREMISES OF CETP MURTHAL SONEPAT,29.0219439998596,77.0686109996863,MANUAL,,,1996,POINT (77.0686109996863 29.0219439998596)
HARYANA,KURUKSHETRA,Diwana-PZ,30.059999999785905,76.46583332953644,Manual,,,1996,POINT (76.46583332953644 30.05999999978591)
HARYANA,SONIPAT,Butana,29.18749999984132,76.62500000024527,Manual,3.18,2.55,1996,POINT (76.62500000024527 29.18749999984132)
HARYANA,KAITHAL,Siwan-Pz,29.883333330351213,76.35388888968414,Manual,,,1996,POINT (76.35388888968414 29.88333333035121)
HARYANA,KURUKSHETRA,Mathana 1(m),29.98333332991022,76.9666666699658,Manual,19.8,20.88,1996,POINT (76.9666666699658 29.98333332991022)
HARYANA,REWARI,Junawas,28.20416667035501,76.70555556026055,Manual,,,1996,POINT (76.70555556026055 28.20416667035501)
HARYANA,KARNAL,Kalri Khalsa,29.875000000230518,77.09166667023871,Manual,,,1996,POINT (77.09166667023871 29.87500000023052)
HARYANA,SIRSA,Ramsarasubkhera,29.723611109640807,75.08750000044445,Manual,,,1996,POINT (75.08750000044445 29.72361110964081)
